"회사명","산업단지명","대표업종","생산품","원자재","groups","공장규모","공장규모가중치","종업원수","도로명주소","지번주소","위도","경도","소분류","소분류항목명","중분류","중분류항목명","세탁소와거리","수주업체명","공장별세탁량"
"
명성금속주식회사",NA,25912,"금속단조품",NA,"GSN","소기업",3,17,"경상남도 김해시 진영읍 본산로241번길 70","경상남도 김해시 진영읍 본산리 654",35.2617696232,128.770382921,259,"기타 금속 가공제품 제조업",25,"금속 가공제품 제조업; 기계 및 가구 제외",7626.88929978081,NA,0
"종삼벤드",NA,31114,"선박부품","선박부품","GSN","소기업",3,7,"경상남도 김해시 진례면 담안리 1077-13","경상남도 김해시 진례면 담안리 1077-13",35.0553035662,127.9512402115,311,"선박 및 보트 건조업",31,"기타 운송장비 제조업",82226.2422104242,NA,0
"(사)경남교통장애인협회 마산지회",NA,22231,"비닐,PE",NA,"GSN","소기업",3,5,"경상남도 김해시 주촌면 서부로1541번길 86-98","경상남도 김해시 주촌면 내삼리 312",35.2122303774,128.6433465612,222,"플라스틱 제품 제조업",22,"고무 및 플라스틱제품 제조업",17196.7235575909,NA,0
"(유)근영금속",NA,24329,"광산기계부품","폐동선,주석,납","GSN","소기업",3,11,"경상남도 김해시 주촌면 서부로1701번안길 58-199","경상남도 김해시 주촌면 선지리 35",35.3247353955,128.8259104765,243,"금속 주조업",24,"1차 금속 제조업",12149.9449292514,NA,0
"(유)성문","김해테크노밸리일반산업단지",31114,"Regasfication unit, EGR, Double gas pipes",NA,"GSN","중기업",2,54,"경상남도 김해시 진례면 테크노밸리1로 122, (유)성문","경상남도 김해시 진례면 고모리 1105-13",35.1731612342,128.1049143037,311,"선박 및 보트 건조업",31,"기타 운송장비 제조업",66398.4039960895,NA,0
"(유)성문","김해테크노밸리일반산업단지",31114,"선박구성부품","steel pipe sus pipe steel plate","GSN","소기업",3,4,"경상남도 김해시 진례면 테크노밸리1로 123","경상남도 김해시 진례면 고모리 1106-13",35.1748302079,128.112815647,311,"선박 및 보트 건조업",31,"기타 운송장비 제조업",65667.0260049532,NA,0
"(유)아이티더블유건화","김해병동농공단지",30399,"자동차부품",NA,"GSN","소기업",3,40,"경상남도 김해시 한림면 김해대로916번길 154-19","경상남도 김해시 한림면 병동리 589",35.2869289351,128.3062524885,303,"자동차 신품 부품 제조업",30,"자동차 및 트레일러 제조업",48518.1432997494,NA,0
"(유)영동레미콘",NA,23322,"레미콘,골재","시멘트,자갈,모래,물","GSN","소기업",3,34,"경상남도 김해시 상동면 상동로 862-79","경상남도 김해시 상동면 매리 464-23",35.2126309172,128.8007486186,233,"시멘트, 석회, 플라스터 및 그 제품 제조업",23,"비금속 광물제품 제조업",2877.55692289034,NA,0
"(유)유성강재",NA,24111,"철판","철","GSN","소기업",3,12,"경상남도 김해시 상동면 상동로685번길 53-2 (총 3 필지)","경상남도 김해시 상동면 대감리 271-7",35.2099771015,128.6525633277,241,"1차 철강 제조업",24,"1차 금속 제조업",16365.1270521208,NA,0
"(유)유창환경공사",NA,29193,"무인자동소독기외",NA,"GSN","소기업",3,2,"경상남도 김해시 전하로 25 (풍유동)","경상남도 김해시 풍유동 69-6",35.2375772796,128.9074438073,291,"일반 목적용 기계 제조업",29,"기타 기계 및 장비 제조업",7282.26131017493,NA,0
"(유)포엠테크",NA,30399,"기계",NA,"GSN","소기업",3,20,"경상남도 김해시 유하로133번길 31-25 (유하동)","경상남도 김해시 유하동 608-1",35.2513186241,128.6038787867,303,"자동차 신품 부품 제조업",30,"자동차 및 트레일러 제조업",21161.6150678496,NA,0
"(자)동일콘크리트",NA,23325,"콘크리트제품",NA,"GSN","소기업",3,7,"경상남도 김해시 상동면 소락로 159","경상남도 김해시 상동면 묵방리 505",35.2466672638,128.6267253342,233,"시멘트, 석회, 플라스터 및 그 제품 제조업",23,"비금속 광물제품 제조업",19022.7991389941,NA,0
"(주) 에어앤코리아",NA,29172,"공기조화장치","공기조화기","GSN","소기업",3,4,"경상남도 김해시 한림면 안곡로448번길 29-4","경상남도 김해시 한림면 안곡리 195",35.2274946527,128.8053778892,291,"일반 목적용 기계 제조업",29,"기타 기계 및 장비 제조업",2787.70519826537,NA,0
"(주)CS코리아",NA,25119,"컨테이너","금속","GSN","소기업",3,3,"경상남도 김해시 생림면 생림대로950번길 16","경상남도 김해시 생림면 봉림리 934-0",35.3050737973,128.5140486235,251,"구조용 금속제품, 탱크 및 증기발생기 제조업",25,"금속 가공제품 제조업; 기계 및 가구 제외",30613.2157032608,NA,0
"(주)DCF TREK","김해나전농공단지",30331,"자동차부품(크랑크)","LINK.PIN.CRANKSHANT.ROLLER","GSN","중기업",2,55,"경상남도 김해시 생림면 나전리 681","경상남도 김해시 생림면 나전리 681",35.3031319942,128.782848076,303,"자동차 신품 부품 제조업",30,"자동차 및 트레일러 제조업",10724.4851580457,NA,0
"(주)DCF TREK 제2공장",NA,29142,"LINK ASSY(중장비부품)",NA,"GSN","소기업",3,19,"경상남도 김해시 생림면 나전로 196-11","경상남도 김해시 생림면 나전리 649",35.2115756036,128.6362907147,291,"일반 목적용 기계 제조업",29,"기타 기계 및 장비 제조업",17840.6597351827,NA,0
"(주)DSB엘디엘",NA,31114,"선박구성품외",NA,"GSN","소기업",3,6,"경상남도 김해시 진영읍 서부로378번길 29","경상남도 김해시 진영읍 의전리 449-3",35.2214092462,128.8216318164,311,"선박 및 보트 건조업",31,"기타 운송장비 제조업",1172.6412675331,NA,0
"(주)HDS ENG",NA,25113,"금속구조재",NA,"GSN","소기업",3,5,"경상남도 김해시 진영읍 하계로 262-25","경상남도 김해시 진영읍 하계리 97-1",35.3205527561,128.756079109,251,"구조용 금속제품, 탱크 및 증기발생기 제조업",25,"금속 가공제품 제조업; 기계 및 가구 제외",13571.7986771755,NA,0
"(주)HDS ENG-2공장",NA,25113,"조립구조재",NA,"GSN","소기업",3,5,"경상남도 김해시 진영읍 하계리 97-2","경상남도 김해시 진영읍 하계리 97-2",35.2406906326,128.5859985168,251,"구조용 금속제품, 탱크 및 증기발생기 제조업",25,"금속 가공제품 제조업; 기계 및 가구 제외",22586.6301192132,NA,0
"(주)HKM",NA,24212,"알류미늄합금괴","폐알류미늄스크랩","GSN","소기업",3,7,"경상남도 김해시 상동면 묵방로120번길 20","경상남도 김해시 상동면 우계리 104-1",35.258208585,128.8171457293,242,"1차 비철금속 제조업",24,"1차 금속 제조업",4948.63864161504,NA,0
"(주)HOT메탈",NA,25912,"선박부품",NA,"GSN","소기업",3,8,"경상남도 김해시 진영읍 본산리 811","경상남도 김해시 진영읍 본산리 811",35.2693107676,128.4797713577,259,"기타 금속 가공제품 제조업",25,"금속 가공제품 제조업; 기계 및 가구 제외",32629.5794912918,NA,0
"(주)HS그라비아",NA,18119,"포장지","수지","GSN","소기업",3,8,"경상남도 김해시 상동면 상동로 305","경상남도 김해시 상동면 우계리 720-1",35.3617732594,129.0427961335,181,"인쇄 및 인쇄관련 산업",18,"인쇄 및 기록매체 복제업",25119.6072219478,NA,0
"(주)JY산업",NA,31114,"선박구성품","파이프","GSN","소기업",3,4,"경상남도 김해시 한림면 안하로4번길 16-51","경상남도 김해시 한림면 안하리 464-10",35.2426264457,128.624209378,311,"선박 및 보트 건조업",31,"기타 운송장비 제조업",19172.6129286649,NA,0
"(주)KITT",NA,31114,"선박부품","철판","GSN","소기업",3,7,"경상남도 김해시 김해대로2694번길 31 (지내동)","경상남도 김해시 지내동 195-6",35.3206960931,128.5434959853,311,"선박 및 보트 건조업",31,"기타 운송장비 제조업",28750.3387245625,NA,0
"(주)MS로얄코리아",NA,25113,"금속제품",NA,"GSN","소기업",3,10,"경상남도 김해시 한림면 김해대로1031번길 106-48","경상남도 김해시 한림면 퇴래리 910",35.2209885303,128.855635282,251,"구조용 금속제품, 탱크 및 증기발생기 제조업",25,"금속 가공제품 제조업; 기계 및 가구 제외",2225.47996151073,NA,0
"(주)MS이엔지진영공장",NA,29132,"가스콤프레샤","철재","GSN","소기업",3,20,"경상남도 김해시 한림면 한림로 1029 (총 6 필지)","경상남도 김해시 한림면 가산리 347-2",35.2273139452,128.9148996405,291,"일반 목적용 기계 제조업",29,"기타 기계 및 장비 제조업",7647.18409456617,NA,0
"(주)SC ISP","김해안하농공단지",29150,"오븐,노,버너","형강류,플레이트","GSN","소기업",3,8,"경상남도 김해시 한림면 용덕로302번길 56","경상남도 김해시 한림면 안하리 2001-7",35.302230979,128.8143731918,291,"일반 목적용 기계 제조업",29,"기타 기계 및 장비 제조업",9775.00318246452,NA,0
"(주)SM마블",NA,23911,"대리석","수지","GSN","소기업",3,5,"경상남도 김해시 생림면 나전로161번길 160","경상남도 김해시 생림면 나전리 549-7",35.2383283844,128.8419837189,239,"기타 비금속 광물제품 제조업",23,"비금속 광물제품 제조업",2701.7427285467,NA,0
"(주)SY가스",NA,20121,"산소,질소,알곤,암모니아","탄산가스,에틸렌","GSN","소기업",3,14,"경상남도 김해시 대청계곡길 65-23 (대청동)","경상남도 김해시 대청동 834-1",35.2893696151,128.8273936911,201,"기초 화학물질 제조업",20,"화학 물질 및 화학제품 제조업; 의약품 제외",8224.38974141354,NA,0
"(주)WIDO",NA,22212,"KPO150",NA,"GSN","소기업",3,9,"경상남도 김해시 진례면 고모로526번길 37","경상남도 김해시 진례면 고모리 676",35.2619641529,128.7734432704,222,"플라스틱 제품 제조업",22,"고무 및 플라스틱제품 제조업",7438.81898852971,NA,0
"(주)가산기업",NA,22299,"자동차부품(사출성형)",NA,"GSN","소기업",3,15,"경상남도 김해시 진영읍 하계로 207","경상남도 김해시 진영읍 하계리 364-7",35.205624298,128.6637527703,222,"플라스틱 제품 제조업",22,"고무 및 플라스틱제품 제조업",15373.7504030825,NA,0
"(주)가야선광",NA,29131,"액체펌프",NA,"GSN","소기업",3,6,"경상남도 김해시 주촌면 서부로1499번길 46","경상남도 김해시 주촌면 내삼리 941",35.2331598081,128.8144307894,291,"일반 목적용 기계 제조업",29,"기타 기계 및 장비 제조업",2553.02298744343,NA,0
"(주)가오스",NA,30399,"자동차부품",NA,"GSN","소기업",3,7,"경상남도 김해시 생림면 생림대로 626","경상남도 김해시 생림면 사촌리 417",35.1188896602,128.1013946871,303,"자동차 신품 부품 제조업",30,"자동차 및 트레일러 제조업",67430.431600951,NA,0
"(주)가온-1공장",NA,29299,"자동화설비",NA,"GSN","소기업",3,10,"경상남도 김해시 생림면 인제로 740-1","경상남도 김해시 생림면 나전리 383",35.2792410921,128.5164291537,292,"특수 목적용 기계 제조업",29,"기타 기계 및 장비 제조업",29598.7553332812,NA,0
"(주)가온-2공장",NA,29299,"자동화설비",NA,"GSN","소기업",3,10,"경상남도 김해시 생림면 인제로 740-2","경상남도 김해시 생림면 나전리 383-8",35.2938783816,128.888882589,292,"특수 목적용 기계 제조업",29,"기타 기계 및 장비 제조업",10126.4882852363,NA,0
"(주)가온-3공장",NA,29299,"자동화기계",NA,"GSN","소기업",3,10,"경상남도 김해시 생림면 인제로 740-3","경상남도 김해시 생림면 나전리 378",35.3477079795,128.5071720092,292,"특수 목적용 기계 제조업",29,"기타 기계 및 장비 제조업",33013.4008169736,NA,0
"(주)가원기계",NA,25112,"스프레이,무스","철자재","GSN","소기업",3,12,"경상남도 김해시 지내동 5B-25L","경상남도 김해시 지내동 5B-25L",35.377213702,129.0255894348,251,"구조용 금속제품, 탱크 및 증기발생기 제조업",25,"금속 가공제품 제조업; 기계 및 가구 제외",25139.6936879224,NA,0
"(주)가인이엔지",NA,29193,"소화기","분말소화기","GSN","소기업",3,5,"경상남도 김해시 생림면 생림대로950번길 13","경상남도 김해시 생림면 봉림리 949-1",35.3476815313,128.7215329232,291,"일반 목적용 기계 제조업",29,"기타 기계 및 장비 제조업",17801.5646773034,NA,0
"(주)갑신RUBBER",NA,22199,"실리콘",NA,"GSN","소기업",3,10,"경상남도 김해시 주촌면 서부로1541번길 126","경상남도 김해시 주촌면 내삼리 328-2",35.3698704601,128.4786274184,221,"고무제품 제조업",22,"고무 및 플라스틱제품 제조업",36444.0974200732,NA,0
"(주)갑일오피스","김해나전농공단지",32091,"캐비냇","철재류","GSN","소기업",3,15,"경상남도 김해시 생림면 나전로161번길 149, 나전농공단지내","경상남도 김해시 생림면 나전리 700",35.2144715064,128.6473076404,320,"가구 제조업",32,"가구 제조업",16832.6451151243,NA,0
"(주)강동합판",NA,32029,"코팅용합판",NA,"GSN","소기업",3,7,"경상남도 김해시 진례면 서부로396번길 57","경상남도 김해시 진례면 청천리 414",35.545069726,128.252849583,320,"가구 제조업",32,"가구 제조업",64103.2556042668,NA,0
"(주)강명산업사",NA,19221,"윤할유","폐윤할류","GSN","소기업",3,9,"경상남도 김해시 김해대로1685번길 13 (삼계동)","경상남도 김해시 삼계동 1209-1",35.2714171922,128.7546773996,192,"석유 정제품 제조업",19,"코크스, 연탄 및 석유정제품 제조업",9405.38202497963,NA,0
"(주)강성포장",NA,17221,"지대(크라프트지포대)","지대","GSN","소기업",3,30,"경상남도 김해시 생림면 나전로 207","경상남도 김해시 생림면 나전리 659-0",34.8141664976,128.6701488183,172,"골판지, 종이 상자 및 종이 용기 제조업",17,"펄프, 종이 및 종이제품 제조업",46899.5966417539,NA,0
"(주)강양HTS",NA,27219,"시험검사장비,세정집진장치","철재","GSN","소기업",3,5,"경상남도 김해시 한림면 가산로 52-16","경상남도 김해시 한림면 가산리 678",35.3138799633,128.5041171811,272,"측정, 시험, 항해, 제어 및 기타 정밀 기기 제조업; 광학 기기 제외",27,"의료, 정밀, 광학 기기 및 시계 제조업",31790.2792624621,NA,0
"(주)강진테크",NA,25924,"열교환기,프레임가공조립",NA,"GSN","소기업",3,14,"경상남도 김해시 진영읍 본산2로79번길 14","경상남도 김해시 진영읍 본산리 313-11",35.194565394,128.6915667984,259,"기타 금속 가공제품 제조업",25,"금속 가공제품 제조업; 기계 및 가구 제외",13010.039978105,NA,0
"(주)강호산업",NA,25994,"도로표지판","금속","GSN","소기업",3,3,"경상남도 김해시 한림면 김해대로927번길 177-1 (총 2 필지)","경상남도 김해시 한림면 퇴래리 704-1",35.2420456525,128.6228088148,259,"기타 금속 가공제품 제조업",25,"금속 가공제품 제조업; 기계 및 가구 제외",19288.5875598197,NA,0
"(주)개방",NA,29294,"트리밍 포밍","금속","GSN","소기업",3,5,"경상남도 김해시 수가로194번길 59-20","경상남도 김해시 장유동 75",35.4427752809,129.0351672571,292,"특수 목적용 기계 제조업",29,"기타 기계 및 장비 제조업",31261.9985772262,NA,0
"(주)개원산업 농업회사법인",NA,20312,"비료","톱밥등","GSN","소기업",3,6,"경상남도 김해시 상동면 동북로437번길 138-14","경상남도 김해시 상동면 매리 542-3",35.4320074244,128.4861582412,203,"비료, 농약 및 살균ㆍ살충제 제조업",20,"화학 물질 및 화학제품 제조업; 의약품 제외",39594.5954448022,NA,0
"(주)거도산업",NA,33910,"표지판,조립구","철물,알루미늄","GSN","소기업",3,21,"경상남도 김해시 김해대로2596번길 91","경상남도 김해시 안동 541-24",35.4325612757,128.4866809985,339,"그 외 기타 제품 제조업",33,"기타 제품 제조업",39594.1220081421,NA,0
"(주)거림",NA,25122,"금속탱크용기 사출기베드","철재","GSN","소기업",3,7,"경상남도 김해시 분성로557번길 33 (어방동)","경상남도 김해시 어방동 1061-11",35.205624298,128.6637527703,251,"구조용 금속제품, 탱크 및 증기발생기 제조업",25,"금속 가공제품 제조업; 기계 및 가구 제외",15373.7504030825,NA,0
"(주)거림중공업",NA,29199,"조선기자재",NA,"GSN","소기업",3,15,"경상남도 김해시 한림면 김해대로 1206","경상남도 김해시 한림면 명동리 998",35.3884646801,129.015804714,291,"일반 목적용 기계 제조업",29,"기타 기계 및 장비 제조업",25452.6398536476,NA,0
"(주)거산기계",NA,29242,"크라샤","철판 및 철재","GSN","소기업",3,6,"경상남도 김해시 진영읍 본산로 277","경상남도 김해시 진영읍 본산리 311-9",35.4330851038,129.1574886863,292,"특수 목적용 기계 제조업",29,"기타 기계 및 장비 제조업",38190.6180929598,NA,0
"(주)거산엔지니어링",NA,25112,"판넬",NA,"GSN","소기업",3,10,"경상남도 김해시 한림면 김해대로1288번길 34","경상남도 김해시 한림면 명동리 811-1",35.2165276528,128.8096043024,251,"구조용 금속제품, 탱크 및 증기발생기 제조업",25,"금속 가공제품 제조업; 기계 및 가구 제외",2059.61394854365,NA,0
"(주)거산피앤에프",NA,25113,"발전배관 Spool",NA,"GSN","소기업",3,5,"경상남도 김해시 한림면 안하로116번길 52","경상남도 김해시 한림면 안하리 244-11",35.1230015958,128.1073408593,251,"구조용 금속제품, 탱크 및 증기발생기 제조업",25,"금속 가공제품 제조업; 기계 및 가구 제외",66822.5484533123,NA,0
"(주)거성중공업",NA,31114,"조선기자재",NA,"GSN","소기업",3,27,"경상남도 김해시 진례면 고모로364번길 74-34","경상남도 김해시 진례면 담안리 499-5",35.3372258429,128.8491623859,311,"선박 및 보트 건조업",31,"기타 운송장비 제조업",13610.3099828154,NA,0
"(주)거성플랜트",NA,24119,"산업기계",NA,"GSN","소기업",3,10,"경상남도 김해시 생림면 장재로 293-1","경상남도 김해시 생림면 생림리 778",35.2379210697,128.6391393374,241,"1차 철강 제조업",24,"1차 금속 제조업",17751.1732737438,NA,0
"(주)거성피앤텍",NA,17212,"골판지 상자","골판지 원단","GSN","소기업",3,32,"경상남도 김해시 주촌면 서부로1403번길 53","경상남도 김해시 주촌면 내삼리 1312",35.4227514185,129.0601574313,172,"골판지, 종이 상자 및 종이 용기 제조업",17,"펄프, 종이 및 종이제품 제조업",30972.0833972911,NA,0
"(주)거진","김해테크노밸리일반산업단지",25929,"금속가공외","금속가공","GSN","소기업",3,10,"경상남도 김해시 진례면 테크노밸리로 65","경상남도 김해시 진례면 고모리 1571-3",35.3263899765,127.9047726518,259,"기타 금속 가공제품 제조업",25,"금속 가공제품 제조업; 기계 및 가구 제외",85275.6599106584,NA,0
"(주)거진아스콘",NA,23991,"아스콘","모래,자갈,아스팔트","GSN","소기업",3,5,"경상남도 김해시 분성로569번길 34 (어방동)","경상남도 김해시 어방동 1048-7",35.2096593121,128.6512372062,239,"기타 비금속 광물제품 제조업",23,"비금속 광물제품 제조업",16487.1358105782,NA,0
"(주)거창기계",NA,29299,"자동화기계","철판","GSN","소기업",3,3,"경상남도 김해시 상동면 동북로437번길 58-10","경상남도 김해시 상동면 매리 1096-6",35.2281075777,128.9209743293,292,"특수 목적용 기계 제조업",29,"기타 기계 및 장비 제조업",8207.08781784256,NA,0
"(주)건보산업",NA,22229,"LG하이샤시","플라스틱 프로파일","GSN","소기업",3,35,"경상남도 김해시 상동면 상동로 380-11","경상남도 김해시 상동면 우계리 60-1",35.3175777203,128.5397533939,222,"플라스틱 제품 제조업",22,"고무 및 플라스틱제품 제조업",28924.8490459395,NA,0
"(주)건안산업",NA,22223,"하이샤시","샤시철재","GSN","소기업",3,23,"경상남도 김해시 상동면 상동로 122-101 (건안산업)","경상남도 김해시 상동면 우계리 1066-4",34.7877600649,128.051994979,222,"플라스틱 제품 제조업",22,"고무 및 플라스틱제품 제조업",85571.3221509568,NA,0
"(주)건양메탈",NA,24219,"재생용비금속가공원료","페아연","GSN","소기업",3,10,"경상남도 김해시 한림면 김해대로916번길 54-27","경상남도 김해시 한림면 병동리 1045",35.2354156966,128.7677507452,242,"1차 비철금속 제조업",24,"1차 금속 제조업",6273.92726219557,NA,0
"(주)건영금속",NA,24199,"철판절단품",NA,"GSN","소기업",3,6,"경상남도 김해시 주촌면 서부로1295번길 37","경상남도 김해시 주촌면 양동리 288-3",35.323426697,128.7475890887,241,"1차 철강 제조업",24,"1차 금속 제조업",14248.9241429705,NA,0
"(주)게이트(GATE CO.,Ltd)",NA,25924,"기계컨버류","철재","GSN","소기업",3,20,"경상남도 김해시 한림면 명동로 62-19","경상남도 김해시 한림면 용덕리 267",35.3181927583,128.2468948453,259,"기타 금속 가공제품 제조업",25,"금속 가공제품 제조업; 기계 및 가구 제외",54464.2082681212,NA,0
"(주)경남밴드",NA,24131,"관이음쇠",NA,"GSN","소기업",3,11,"경상남도 김해시 상동면 매리 924","경상남도 김해시 상동면 매리 924",35.2192551799,128.5956729202,241,"1차 철강 제조업",24,"1차 금속 제조업",21537.3876380422,NA,0
"(주)경남알씨",NA,22212,"플라스틱시트",NA,"GSN","소기업",3,5,"경상남도 김해시 한림면 용덕로237번길 89","경상남도 김해시 한림면 용덕리 575",35.2114468,128.6458775084,222,"플라스틱 제품 제조업",22,"고무 및 플라스틱제품 제조업",16968.401518694,NA,0
"(주)경도상사",NA,14192,"산업안전복,신발",NA,"GSN","소기업",3,29,"경상남도 김해시 분성로557번길 27 (어방동)","경상남도 김해시 어방동 1061-10",35.1717087915,128.1218179337,141,"봉제의복 제조업",14,"의복, 의복 액세서리 및 모피제품 제조업",64875.2867188573,NA,0
"(주)경동기계",NA,25113,"금속조립구조재","금속","GSN","소기업",3,18,"경상남도 김해시 진례면 진례로 127","경상남도 김해시 진례면 초전리 795-10",35.2465120973,128.6131398211,251,"구조용 금속제품, 탱크 및 증기발생기 제조업",25,"금속 가공제품 제조업; 기계 및 가구 제외",20237.0182429359,NA,0
"(주)경동기계",NA,25113,"구조재","철재","GSN","소기업",3,18,"경상남도 김해시 진례면 진례로 127","경상남도 김해시 진례면 초전리 791-3",35.2101445695,128.6505075776,251,"구조용 금속제품, 탱크 및 증기발생기 제조업",25,"금속 가공제품 제조업; 기계 및 가구 제외",16551.5084574427,NA,0
"(주)경동기계",NA,29133,"유압,스프링행거",NA,"GSN","소기업",3,18,"경상남도 김해시 진례면 진례로 129","경상남도 김해시 진례면 초전리 796-3",35.247743589,128.6214487031,291,"일반 목적용 기계 제조업",29,"기타 기계 및 장비 제조업",19516.7648452585,NA,0
"(주)경동기공",NA,30399,"자동차부품","금속(철)","GSN","소기업",3,18,"경상남도 김해시 진영읍 하계로 232-27","경상남도 김해시 진영읍 하계리 196-5",35.3491436791,128.1675552565,303,"자동차 신품 부품 제조업",30,"자동차 및 트레일러 제조업",62258.7273990994,NA,0
"(주)경동냉열산업",NA,29171,"열교환기,공기조화기,팬코일유닛,냉각탑등","철판","GSN","소기업",3,48,"경상남도 김해시 진영읍 서부로396번길 30-22","경상남도 김해시 진영읍 의전리 344-3",35.2885025112,128.7725530378,291,"일반 목적용 기계 제조업",29,"기타 기계 및 장비 제조업",9763.52220094547,NA,0
"(주)경동냉열산업",NA,29172,"공기조화장치",NA,"GSN","소기업",3,8,"경상남도 김해시 진영읍 서부로396번길 30-25","경상남도 김해시 진영읍 의전리 343",35.2880016011,128.7736303559,291,"일반 목적용 기계 제조업",29,"기타 기계 및 장비 제조업",9662.97219121603,NA,0
"(주)경동냉열산업",NA,29172,"공기 조화장치",NA,"GSN","소기업",3,20,"경상남도 김해시 진영읍 서부로396번길 20-57","경상남도 김해시 진영읍 의전리 329",35.2952151498,128.3979969486,291,"일반 목적용 기계 제조업",29,"기타 기계 및 장비 제조업",40493.6798187531,NA,0
"(주)경동유리제경사",NA,23112,"안전유리 등","판유리","GSN","소기업",3,4,"경상남도 김해시 생림면 나전로 276, 아동 1층","경상남도 김해시 생림면 나전리 730-7",35.3150995149,128.7553547064,231,"유리 및 유리제품 제조업",23,"비금속 광물제품 제조업",13090.3041930576,NA,0
"(주)경방",NA,29173,"인터날","SVS","GSN","중기업",2,10,"경상남도 김해시 주촌면 서부로1701번안길 58-135","경상남도 김해시 주촌면 선지리 92-1",35.155330433,128.6813840056,291,"일반 목적용 기계 제조업",29,"기타 기계 및 장비 제조업",15263.4483078761,NA,0
"(주)경방",NA,29175,"증류기,정제기",NA,"GSN","소기업",3,10,"경상남도 김해시 주촌면 서부로1331번길 36","경상남도 김해시 주촌면 양동리 194",35.1277555712,128.7861438081,291,"일반 목적용 기계 제조업",29,"기타 기계 및 장비 제조업",10583.6521518281,NA,0
"(주)경부건업",NA,23112,"복층유리","유리","GSN","소기업",3,27,"경상남도 김해시 한림면 한림로 915","경상남도 김해시 한림면 가산리 52-3",35.1600087541,128.6818350907,231,"유리 및 유리제품 제조업",23,"비금속 광물제품 제조업",15006.435819527,NA,0
"(주)경부건업",NA,23112,"복층유리",NA,"GSN","소기업",3,18,"경상남도 김해시 생림면 생림대로713번길 52","경상남도 김해시 생림면 봉림리 358-1",35.2589497567,128.183183014,231,"유리 및 유리제품 제조업",23,"비금속 광물제품 제조업",59271.9236954766,NA,0
"(주)경성테크",NA,30399,"세탁기부품","플라스틱","GSN","소기업",3,45,"경상남도 김해시 한림면 가산로 26-32 (총 3 필지)","경상남도 김해시 한림면 가산리 651-3",35.2796387322,128.5199460714,303,"자동차 신품 부품 제조업",30,"자동차 및 트레일러 제조업",29298.7304870889,NA,0
"(주)경성하이테크",NA,28123,"배전반,사출품",NA,"GSN","소기업",3,10,"경상남도 김해시 한림면 김해대로 1102-20","경상남도 김해시 한림면 명동리 1177-1",35.2476097651,128.7750704079,281,"전동기, 발전기 및 전기 변환ㆍ공급ㆍ제어 장치 제조업",28,"전기장비 제조업",6311.96465704268,NA,0
"(주)경신공영",NA,25111,"창호",NA,"GSN","소기업",3,13,"경상남도 김해시 진례면 진례로311번길 27 (총 3 필지)","경상남도 김해시 진례면 시례리 448-5",35.205624298,128.6637527703,251,"구조용 금속제품, 탱크 및 증기발생기 제조업",25,"금속 가공제품 제조업; 기계 및 가구 제외",15373.7504030825,NA,0
"(주)경신공영",NA,22229,"건축용품","목재","GSN","소기업",3,16,"경상남도 김해시 주촌면 소망길 48-21","경상남도 김해시 주촌면 망덕리 581-16",35.2067854264,128.6359750879,222,"플라스틱 제품 제조업",22,"고무 및 플라스틱제품 제조업",17890.2369525441,NA,0
"(주)경신이티엠",NA,31114,"산업기계","철판,탄소강","GSN","소기업",3,12,"경상남도 김해시 한림면 김해대로927번길 259-1","경상남도 김해시 한림면 퇴래리 60-1",35.2070110075,128.6341800129,311,"선박 및 보트 건조업",31,"기타 운송장비 제조업",18052.1320158953,NA,0
"(주)경영사",NA,29222,"공작기계판금부품","철판","GSN","소기업",3,32,"경상남도 김해시 진영읍 서부로38번길 93-26","경상남도 김해시 진영읍 내룡리 160-1",35.2163009929,128.5970491022,292,"특수 목적용 기계 제조업",29,"기타 기계 및 장비 제조업",21408.3700926677,NA,0
"(주)경용중공업",NA,25113,"구조재","철판","GSN","소기업",3,25,"경상남도 김해시 진영읍 본산2로 57","경상남도 김해시 진영읍 본산리 316-13",35.1971519472,128.6941671469,251,"구조용 금속제품, 탱크 및 증기발생기 제조업",25,"금속 가공제품 제조업; 기계 및 가구 제외",12728.2279782071,NA,0
"(주)경용중공업제3공장",NA,31114,"선박부품",NA,"GSN","소기업",3,10,"경상남도 김해시 한림면 장방로 210","경상남도 김해시 한림면 장방리 978-2",35.2854574593,128.3056334309,311,"선박 및 보트 건조업",31,"기타 운송장비 제조업",48547.7253615348,NA,0
"(주)경원",NA,25991,"금속탱크","철제","GSN","소기업",3,30,"경상남도 김해시 진례면 고모로 596-27","경상남도 김해시 진례면 고모리 133",35.2379210697,128.6391393374,259,"기타 금속 가공제품 제조업",25,"금속 가공제품 제조업; 기계 및 가구 제외",17751.1732737438,NA,0
"(주)경원테크","김해테크노밸리일반산업단지",30399,"도어트림 및 선바이져 외","사출물 및 PVC","GSN","소기업",3,40,"경상남도 김해시 진례면 테크노밸리1로 71","경상남도 김해시 진례면 고모리 1111-11",35.209104751,128.6407748875,303,"자동차 신품 부품 제조업",30,"자동차 및 트레일러 제조업",17441.4789813229,NA,0
"(주)경은",NA,23239,"세라믹백업테이프","고령토 점토","GSN","소기업",3,25,"경상남도 김해시 진영읍 본산로219번길 74, 외1","경상남도 김해시 진영읍 본산리 478-2",35.2338205977,128.8152878562,232,"내화, 비내화 요업제품 제조업",23,"비금속 광물제품 제조업",2562.62312335402,NA,0
"(주)경은",NA,23239,"세라믹백업테잎",NA,"GSN","소기업",3,19,"경상남도 김해시 진영읍 본산로219번길 74","경상남도 김해시 진영읍 본산리 475-4",35.3049595564,128.9499913277,232,"내화, 비내화 요업제품 제조업",23,"비금속 광물제품 제조업",14621.421651589,NA,0
"(주)경인산업",NA,22211,"압출품","수지","GSN","소기업",3,3,"경상남도 김해시 한림면 퇴래리 145","경상남도 김해시 한림면 퇴래리 145",35.2115963574,128.6398716458,222,"플라스틱 제품 제조업",22,"고무 및 플라스틱제품 제조업",17514.6485920896,NA,0
"(주)경일에프비",NA,30399,"자동차부품",NA,"GSN","소기업",3,28,"경상남도 김해시 진영읍 진산대로201번길 46-21","경상남도 김해시 진영읍 진영리 995-2",35.205624298,128.6637527703,303,"자동차 신품 부품 제조업",30,"자동차 및 트레일러 제조업",15373.7504030825,NA,0
"(주)경일정공","김해나전농공단지",31114,"선박부품","철판","GSN","소기업",3,22,"경상남도 김해시 생림면 나전로161번길 69","경상남도 김해시 생림면 나전리 679",35.2998613327,128.9107126132,311,"선박 및 보트 건조업",31,"기타 운송장비 제조업",11789.8043684918,NA,0
"(주)경일폴리며",NA,22212,"필름,비닐봉투",NA,"GSN","소기업",3,10,"경상남도 김해시 한림면 김해대로1099번안길 19","경상남도 김해시 한림면 퇴래리 1078-0",35.3695718095,129.0498118718,222,"플라스틱 제품 제조업",22,"고무 및 플라스틱제품 제조업",26166.3912167907,NA,0
"(주)계암",NA,29133,"파이프 가공품",NA,"GSN","소기업",3,9,"경상남도 김해시 한림면 김해대로 1458-32 (한림면)","경상남도 김해시 한림면 신천리 517-2",35.3792166582,129.050322046,291,"일반 목적용 기계 제조업",29,"기타 기계 및 장비 제조업",26911.6668200437,NA,0
"(주)고려산기",NA,31114,"조선기자재","철판","GSN","소기업",3,30,"경상남도 김해시 한림면 한림로343번길 33-9","경상남도 김해시 한림면 장방리 289-11",35.2140611623,128.8286115832,311,"선박 및 보트 건조업",31,"기타 운송장비 제조업",354.639404148897,"고려산기",2949
"(주)고려차량",NA,31201,"화차","금속","GSN","소기업",3,19,"경상남도 김해시 분성로 602 (총 3 필지)","경상남도 김해시 안동 386",35.1927896541,128.6912874645,312,"철도장비 제조업",31,"기타 운송장비 제조업",13071.4898625854,NA,0
"(주)고려휄트",NA,13992,"합성섬유, 재생섬유","폴리에스테르,PP,울,아크릴","GSN","소기업",3,5,"경상남도 김해시 상동면 동북로473번길 59","경상남도 김해시 상동면 매리 184-10",35.242367697,128.5093173633,139,"기타 섬유제품 제조업",13,"섬유제품 제조업; 의복 제외",29543.7104472298,NA,0
"(주)고성",NA,30399,"자동차부품","철판","GSN","소기업",3,7,"경상남도 김해시 생림면 상동로 89","경상남도 김해시 생림면 나전리 295-3",35.2192069185,128.804794217,303,"자동차 신품 부품 제조업",30,"자동차 및 트레일러 제조업",2529.90069892618,NA,0
"(주)고성공업사",NA,31114,"선박구성부품",NA,"GSN","소기업",3,19,"경상남도 김해시 한림면 한림로343번길 33-32","경상남도 김해시 한림면 장방리 287-15",35.2700616607,128.4790878526,311,"선박 및 보트 건조업",31,"기타 운송장비 제조업",32705.9515375667,NA,0
"(주)골프큐앤아이",NA,33309,"골프공","고무","GSN","소기업",3,15,"경상남도 김해시 생림면 나전로 396-79","경상남도 김해시 생림면 사촌리 1-5",35.3644159728,129.0595802641,333,"운동 및 경기용구 제조업",33,"기타 제품 제조업",26484.4891127434,NA,0
"(주)공간파크(김해지점)",NA,33301,"공원체육시설",NA,"GSN","소기업",3,5,"경상남도 김해시 진례면 고모로216번길 168-46","경상남도 김해시 진례면 송현리 901",35.2826913502,128.8167423744,333,"운동 및 경기용구 제조업",33,"기타 제품 제조업",7602.86177899381,NA,0
"(주)광남정밀",NA,25112,"에스컬레이터스텝",NA,"GSN","소기업",3,12,"경상남도 김해시 한림면 병동리 1046","경상남도 김해시 한림면 병동리 1046",34.7312715675,128.0333906267,251,"구조용 금속제품, 탱크 및 증기발생기 제조업",25,"금속 가공제품 제조업; 기계 및 가구 제외",90579.6808726036,NA,0
"(주)광동",NA,22241,"플라스틱골판지","P.PSHEET","GSN","소기업",3,29,"경상남도 김해시 주촌면 서부로1701번안길 89","경상남도 김해시 주촌면 원지리 1235-2",34.7331030893,128.0319311502,222,"플라스틱 제품 제조업",22,"고무 및 플라스틱제품 제조업",90566.2149815664,NA,0
"(주)광동",NA,22299,"시트","플라스틱","GSN","소기업",3,63,"경상남도 김해시 진례면 고모로 388-36 (총 4 필지)","경상남도 김해시 진례면 담안리 535-3",35.3879893336,128.4580714098,222,"플라스틱 제품 제조업",22,"고무 및 플라스틱제품 제조업",39046.6929091709,NA,0
"(주)광동산업",NA,22232,"라디에타 탱크(자동차용)","ABS, PP, NYLON6.6","GSN","소기업",3,14,"경상남도 김해시 한림면 김해대로1499번길 37-1 (총 2 필지)","경상남도 김해시 한림면 신천리 121-1",35.225801692,128.9189831988,222,"플라스틱 제품 제조업",22,"고무 및 플라스틱제품 제조업",7987.55016471336,NA,0
"(주)광림","김해본산농공단지",29120,"유압냉기시스템",NA,"GSN","중기업",2,56,"경상남도 김해시 진영읍 본산로269번길 62-12","경상남도 김해시 진영읍 본산리 1694",35.3021968649,128.8311314211,291,"일반 목적용 기계 제조업",29,"기타 기계 및 장비 제조업",9636.45314316556,NA,0
"(주)광민사",NA,22241,"냉장고용사출성형","GP.PP","GSN","소기업",3,37,"경상남도 김해시 진례면 진례로 337-27","경상남도 김해시 진례면 청천리 902-1",35.3823543451,129.055759467,222,"플라스틱 제품 제조업",22,"고무 및 플라스틱제품 제조업",27511.3064905673,NA,0
"(주)광산기술",NA,29299,"산업기계","산업기계","GSN","소기업",3,13,"경상남도 김해시 한림면 한림로515번길 203-39 (총 5 필지)","경상남도 김해시 한림면 장방리 1080-3",35.1343483077,128.4454651588,292,"특수 목적용 기계 제조업",29,"기타 기계 및 장비 제조업",36355.1786130593,NA,0
"(주)광산휀스철망",NA,25944,"철선제품","철선","GSN","소기업",3,5,"경상남도 김해시 한림면 용덕로199번길 64-28","경상남도 김해시 한림면 용덕리 654",35.2950843696,128.9015573722,259,"기타 금속 가공제품 제조업",25,"금속 가공제품 제조업; 기계 및 가구 제외",10868.7364970181,NA,0
"(주)광성기계",NA,29292,"믹싱롤","수지류","GSN","소기업",3,6,"경상남도 김해시 진영읍 서부로 197-15","경상남도 김해시 진영읍 죽곡리 182",35.2072764592,128.6522419863,292,"특수 목적용 기계 제조업",29,"기타 기계 및 장비 제조업",16408.250217545,NA,0
"(주)광성씨앤씨",NA,24199,"강판","철판","GSN","소기업",3,29,"경상남도 김해시 진영읍 죽곡리 201-13","경상남도 김해시 진영읍 죽곡리 201-13",35.3614655741,129.0431979322,241,"1차 철강 제조업",24,"1차 금속 제조업",25125.483863411,NA,0
"(주)광성자이",NA,30399,"산업용기계","코일","GSN","소기업",3,21,"경상남도 김해시 한림면 김해대로927번길 266","경상남도 김해시 한림면 퇴래리 56-9",35.2816467085,128.7214308495,303,"자동차 신품 부품 제조업",30,"자동차 및 트레일러 제조업",12478.1807496984,NA,0
"(주)광성코팅",NA,25923,"전자제품부품",NA,"GSN","소기업",3,15,"경상남도 김해시 한림면 김해대로974번길 130-23","경상남도 김해시 한림면 병동리 671",35.0469308201,127.788141165,259,"기타 금속 가공제품 제조업",25,"금속 가공제품 제조업; 기계 및 가구 제외",96972.5350175344,NA,0
"(주)광성푸드",NA,10129,"식육가공","육류","GSN","소기업",3,7,"경상남도 김해시 김해대로2529번길 59 (삼정동)","경상남도 김해시 삼정동 637-1",35.2383550288,128.6318566023,101,"도축, 육류 가공 및 저장 처리업",10,"식료품 제조업",18414.3312257444,NA,0
"(주)광신아이앤피","김해나전농공단지",22241,"프라스틱성형제품","ABS,PP,PE 외","GSN","중기업",2,106,"경상남도 김해시 생림면 나전로161번길 21","경상남도 김해시 생림면 나전리 694",35.2403645253,128.62906492,222,"플라스틱 제품 제조업",22,"고무 및 플라스틱제품 제조업",18697.623716202,NA,0
"(주)광신아이앤피",NA,30399,"자동차부품","플라스틱","GSN","소기업",3,12,"경상남도 김해시 생림면 나전로161번길 146","경상남도 김해시 생림면 나전리 669",35.2092837204,128.6688003072,303,"자동차 신품 부품 제조업",30,"자동차 및 트레일러 제조업",14891.1422453271,NA,0
"(주)광신아이앤피","김해나전농공단지",30399,"자동차부품","pp,pe 외","GSN","소기업",3,10,"경상남도 김해시 나전로161번길 151 (생림면)","경상남도 김해시 생림면 나전리 701",35.2605521568,128.184802494,303,"자동차 신품 부품 제조업",30,"자동차 및 트레일러 제조업",59139.2405113092,NA,0
"(주)광신아이앤피","김해나전농공단지",30399,"자동차부품",NA,"GSN","소기업",3,20,"경상남도 김해시 생림면 나전로161번길 175","경상남도 김해시 생림면 나전리 696",35.2559669409,128.183453143,303,"자동차 신품 부품 제조업",30,"자동차 및 트레일러 제조업",59222.3920439132,NA,0
"(주)광신특수금속",NA,24312,"산업용밸브",NA,"GSN","소기업",3,8,"경상남도 김해시 진영읍 서부로378번길 68-15","경상남도 김해시 진영읍 의전리 412",35.190074356,128.2764772875,243,"금속 주조업",24,"1차 금속 제조업",50681.1446465792,NA,0
"(주)광일",NA,22232,"플라스틱성형용기","pp수지","GSN","중기업",2,155,"경상남도 김해시 주촌면 서부로1541번안길 83","경상남도 김해시 주촌면 내삼리 1076-2",35.20888617,128.6402254029,222,"플라스틱 제품 제조업",22,"고무 및 플라스틱제품 제조업",17492.4710322061,NA,0
"(주)광진",NA,13213,"직물","직물","GSN","소기업",3,10,"경상남도 김해시 한림면 안곡로 251-3","경상남도 김해시 한림면 안곡리 624-10",35.205624298,128.6637527703,132,"직물 직조 및 직물제품 제조업",13,"섬유제품 제조업; 의복 제외",15373.7504030825,NA,0
"(주)광진기계금속",NA,24312,"주물품","철재","GSN","소기업",3,11,"경상남도 김해시 진영읍 본산로269번길 21 (총 2 필지)","경상남도 김해시 진영읍 본산리 309-11",34.883795839,128.3690921048,243,"금속 주조업",24,"1차 금속 제조업",56016.9336357365,NA,0
"(주)광진사",NA,18119,"기타인쇄물",NA,"GSN","소기업",3,10,"경상남도 김해시 대동면 동남로 67-1","경상남도 김해시 대동면 초정리 32-7",35.2722960917,128.7691133021,181,"인쇄 및 인쇄관련 산업",18,"인쇄 및 기록매체 복제업",8536.58350197043,NA,0
"(주)광해산업",NA,29199,"고무제품외","고무외","GSN","소기업",3,10,"경상남도 김해시 한림면 김해대로1402번길 17","경상남도 김해시 한림면 신천리 745-4",35.3142413604,128.7461976021,291,"일반 목적용 기계 제조업",29,"기타 기계 및 장비 제조업",13475.9765629664,NA,0
"(주)광화",NA,10794,"유부.두부","콩,생산,밀가루등","GSN","중기업",2,91,"경상남도 김해시 진례면 고모로 466 (총 3 필지)","경상남도 김해시 진례면 담안리 153-3",35.3050833165,128.8726572952,107,"기타 식품 제조업",10,"식료품 제조업",10615.7356703448,NA,0
"(주)구림열처리",NA,25921,"볼트,볼트열처리","철판등","GSN","소기업",3,6,"경상남도 김해시 한림면 명동로 21","경상남도 김해시 한림면 명동리 277-1",35.2478484277,128.6222938622,259,"기타 금속 가공제품 제조업",25,"금속 가공제품 제조업; 기계 및 가구 제외",19443.2930706139,NA,0
"(주)구보",NA,22299,"중장비 내장재 및 부품","TPE,PE,PP,PC,ABS SHEET,철판,환봉 외","GSN","소기업",3,24,"경상남도 김해시 진영읍 본산1로56번길 60","경상남도 김해시 진영읍 본산리 315-1",35.2759845294,128.1680329357,222,"플라스틱 제품 제조업",22,"고무 및 플라스틱제품 제조업",60820.1000847853,NA,0
"(주)국방기공",NA,25929,"자동차부품","철판","GSN","소기업",3,18,"경상남도 김해시 장유로149번길 16-35 (부곡동)","경상남도 김해시 부곡동 716-2",35.2908902364,128.7620887659,259,"기타 금속 가공제품 제조업",25,"금속 가공제품 제조업; 기계 및 가구 제외",10532.7169402115,NA,0
"(주)국제공업",NA,30399,"자동차휠타부품","철판","GSN","소기업",3,10,"경상남도 김해시 상동면 대감리 206-3","경상남도 김해시 상동면 대감리 206-3",35.3778019518,129.0205707719,303,"자동차 신품 부품 제조업",30,"자동차 및 트레일러 제조업",24869.6144552918,NA,0
"(주)국제스틸1공장",NA,24199,"절단강재",NA,"GSN","소기업",3,5,"경상남도 김해시 진례면 청천리 313","경상남도 김해시 진례면 청천리 313",35.2081098093,128.6547105228,241,"1차 철강 제조업",24,"1차 금속 제조업",16178.8902358806,NA,0
"(주)국제스틸2공장",NA,24199,"절단강재",NA,"GSN","소기업",3,5,"경상남도 김해시 진례면 서부로436번길 5","경상남도 김해시 진례면 청천리 313-7",35.2478484277,128.6222938622,241,"1차 철강 제조업",24,"1차 금속 제조업",19443.2930706139,NA,0
"(주)국제프린테크",NA,18119,"인쇄",NA,"GSN","소기업",3,10,"경상남도 김해시 한림면 안하로 182","경상남도 김해시 한림면 안하리 216-2",35.2369149418,128.8130339852,181,"인쇄 및 인쇄관련 산업",18,"인쇄 및 기록매체 복제업",2960.64963321912,NA,0
"(주)그린레미콘",NA,23322,"레미콘",NA,"GSN","소기업",3,20,"경상남도 김해시 진영읍 본산로 60-60","경상남도 김해시 진영읍 본산리 921-3",35.6127199413,128.43652014,233,"시멘트, 석회, 플라스터 및 그 제품 제조업",23,"비금속 광물제품 제조업",56878.4730900437,NA,0
"(주)그린뱅크",NA,29176,"증류기","철재","GSN","소기업",3,30,"경상남도 김해시 진영읍 진영리 7-11","경상남도 김해시 진영읍 진영리 7-11",35.2897338206,128.7795658269,291,"일반 목적용 기계 제조업",29,"기타 기계 및 장비 제조업",9541.65122673129,NA,0
"(주)그린소닉",NA,28909,"초음파세척기,산업기기",NA,"GSN","소기업",3,7,"경상남도 김해시 생림면 인제로611번길 48","경상남도 김해시 생림면 나전리 118-3",35.1927620207,127.6246987808,289,"기타 전기장비 제조업",28,"전기장비 제조업",109982.222381195,NA,0
"(주)그린칼슘",NA,23999,"페각분말","굴.조개류","GSN","소기업",3,8,"경상남도 김해시 상동면 동북로473번길 238-18","경상남도 김해시 상동면 매리 962-3",35.511093582,128.7673550576,239,"기타 비금속 광물제품 제조업",23,"비금속 광물제품 제조업",33337.361054611,NA,0
"(주)그린트레이딩코리아",NA,31114,"연수장치,기타선용품","철재 및 스텐자재","GSN","소기업",3,2,"경상남도 김해시 생림면 생림대로259번길 34","경상남도 김해시 생림면 나전리 1101-0",35.2150847444,128.102313827,311,"선박 및 보트 건조업",31,"기타 운송장비 제조업",66453.0362692202,NA,0
"(주)그린포인트지엔씨",NA,20312,"액상비료","화학비료","GSN","소기업",3,7,"경상남도 김해시 진영읍 본산로269번길 16-34","경상남도 김해시 진영읍 본산리 311-4",35.205624298,128.6637527703,203,"비료, 농약 및 살균ㆍ살충제 제조업",20,"화학 물질 및 화학제품 제조업; 의약품 제외",15373.7504030825,NA,0
"(주)그린힐",NA,10129,"육류가공품","육류","GSN","소기업",3,36,"경상남도 김해시 유하로 177 (유하동)","경상남도 김해시 유하동 438-3",35.1889336962,128.2755792833,101,"도축, 육류 가공 및 저장 처리업",10,"식료품 제조업",50770.2936058354,NA,0
"(주)글로벌오토트레이딩",NA,30399,"자동차콘트롤",NA,"GSN","소기업",3,15,"경상남도 김해시 진례면 고모로526번길 31-31","경상남도 김해시 진례면 고모리 577-5",35.2053693741,128.6347840834,303,"자동차 신품 부품 제조업",30,"자동차 및 트레일러 제조업",18007.6563781622,NA,0
"(주)글로벌오토트레이딩","김해테크노밸리일반산업단지",25913,"자동차필터류케이스",NA,"GSN","소기업",3,6,"경상남도 김해시 진례면 테크노밸리길 217","경상남도 김해시 진례면 담안리 1527-4",35.1849561024,128.7059051424,259,"기타 금속 가공제품 제조업",25,"금속 가공제품 제조업; 기계 및 가구 제외",11983.2207889379,NA,0
"(주)금강정공",NA,30399,"자동차부품","코일","GSN","소기업",3,18,"경상남도 김해시 분성로627번길 15","경상남도 김해시 안동 356-2",35.2152462259,128.59673896,303,"자동차 신품 부품 제조업",30,"자동차 및 트레일러 제조업",21436.4856174434,NA,0
"(주)금동",NA,20203,"재생수지",NA,"GSN","소기업",3,5,"경상남도 김해시 진영읍 서부로396번길 30-19","경상남도 김해시 진영읍 의전리 343-2",34.888687819,128.3775851334,202,"합성고무 및 플라스틱 물질 제조업",20,"화학 물질 및 화학제품 제조업; 의약품 제외",55075.341883274,NA,0
"(주)금릉섬유",NA,13102,"방모사",NA,"GSN","소기업",3,45,"경상남도 김해시 생림면 안양로358번길 28","경상남도 김해시 생림면 안양리 805",35.265030077,128.7542072558,131,"방적 및 가공사 제조업",13,"섬유제품 제조업; 의복 제외",8986.43515271687,NA,0
"(주)금문",NA,22251,"프라스틱 사출품","ABS, P.P","GSN","중기업",2,77,"경상남도 김해시 상동면 상동로 647","경상남도 김해시 상동면 대감리 407-3",35.4316589521,129.1882348288,222,"플라스틱 제품 제조업",22,"고무 및 플라스틱제품 제조업",40300.407061306,NA,0
"(주)금부산업",NA,25119,"철구조물,팬더스틸프레임,항만시설재","철강재","GSN","소기업",3,16,"경상남도 김해시 한림면 김해대로1538번길 19","경상남도 김해시 한림면 신천리 303-3",35.2329482517,128.9117795449,251,"구조용 금속제품, 탱크 및 증기발생기 제조업",25,"금속 가공제품 제조업; 기계 및 가구 제외",7505.27049149097,NA,0
"(주)금산탄성",NA,22199,"고무분말",NA,"GSN","소기업",3,6,"경상남도 김해시 한림면 김해대로1538번길 48","경상남도 김해시 한림면 신천리 322-8",34.921901081,128.2637046388,221,"고무제품 제조업",22,"고무 및 플라스틱제품 제조업",61224.2083261205,NA,0
"(주)금성글로벌",NA,16232,"수출품포장",NA,"GSN","소기업",3,9,"경상남도 김해시 한림면 장방로 221","경상남도 김해시 한림면 시산리 585-1",35.450403138,129.0801525498,162,"나무제품 제조업",16,"목재 및 나무제품 제조업; 가구 제외",34473.0604332042,NA,0
"(주)금성기계",NA,31114,"선박부품",NA,"GSN","소기업",3,12,"경상남도 김해시 진례면 고모로526번길 86-31","경상남도 김해시 진례면 고모리 992",35.2749458021,128.8521412321,311,"선박 및 보트 건조업",31,"기타 운송장비 제조업",6857.63482652988,NA,0
"(주)금수",NA,13910,"카페트 세라믹박막저행제","원단","GSN","소기업",3,20,"경상남도 김해시 주촌면 선지리 227","경상남도 김해시 주촌면 선지리 227",35.3137302433,128.5039091283,139,"기타 섬유제품 제조업",13,"섬유제품 제조업; 의복 제외",31802.3773516566,NA,0
"(주)금아스틸","김해오척일반산업단지",24199,"철가공 외","철","GSN","중기업",2,53,"경상남도 김해시 진영읍 하계리 772-4","경상남도 김해시 진영읍 하계리 772-4",35.138335491,128.1713748446,241,"1차 철강 제조업",24,"1차 금속 제조업",60796.747442548,NA,0
"(주)금아유압기계",NA,29120,"유압 실린더","실린더용 파이프","GSN","소기업",3,31,"경상남도 김해시 금관대로731번길 19 (내덕동)","경상남도 김해시 내덕동 529",35.2433361376,128.5100641006,291,"일반 목적용 기계 제조업",29,"기타 기계 및 장비 제조업",29487.0335619388,NA,0
"(주)금양소재산업",NA,23211,"황토볼","세라믹","GSN","소기업",3,13,"경상남도 김해시 한림면 명동로 124-60 (총 2 필지)","경상남도 김해시 한림면 용덕리 278-3",35.231668432,128.8330083388,232,"내화, 비내화 요업제품 제조업",23,"비금속 광물제품 제조업",1812.74215054452,NA,0
"(주)금양아이엠",NA,23994,"선박용보온대","유리","GSN","소기업",3,5,"경상남도 김해시 상동면 상동로 350-1","경상남도 김해시 상동면 우계리 253-9",35.3914527672,129.1586459427,239,"기타 비금속 광물제품 제조업",23,"비금속 광물제품 제조업",35544.0182620126,NA,0
"(주)금우",NA,29133,"탭.밸브","금속","GSN","중기업",2,128,"경상남도 김해시 한림면 장방로 80-1","경상남도 김해시 한림면 가동리 656-1",34.9524868643,128.3448072277,291,"일반 목적용 기계 제조업",29,"기타 기계 및 장비 제조업",53158.5891780092,NA,0
"(주)금창사",NA,25929,"선박부품",NA,"GSN","소기업",3,5,"경상남도 김해시 진례면 담안로 166","경상남도 김해시 진례면 송현리 219-7",35.1606185524,128.162662678,259,"기타 금속 가공제품 제조업",25,"금속 가공제품 제조업; 기계 및 가구 제외",61280.2442147506,NA,0
"(주)금하기계",NA,31114,"선박부품",NA,"GSN","소기업",3,5,"경상남도 김해시 진례면 서부로396번길 31","경상남도 김해시 진례면 청천리 372-9",35.2972234521,128.827095521,311,"선박 및 보트 건조업",31,"기타 운송장비 제조업",9095.97432195151,NA,0
"(주)금혜사","김해테크노밸리일반산업단지",29131,"모터 펌프 부품","주철","GSN","소기업",3,13,"경상남도 김해시 테크노밸리길 188 -13(진례면)","경상남도 김해시 진례면 담안리 240-9",35.2635815128,128.7699684315,291,"일반 목적용 기계 제조업",29,"기타 기계 및 장비 제조업",7791.39296997759,NA,0
"(주)금호","김해덕암일반산업단지",24221,"부스바",NA,"GSN","소기업",3,15,"경상남도 김해시 주촌면 서부로1637번길 336","경상남도 김해시 주촌면 덕암리 791",35.2415178933,128.6192098663,242,"1차 비철금속 제조업",24,"1차 금속 제조업",19603.6925853968,NA,0
"(주)금호메카텍",NA,29241,"토목공사제품",NA,"GSN","소기업",3,4,"경상남도 김해시 생림면 봉림로 101-60","경상남도 김해시 생림면 봉림리 1098",35.2802979205,128.5148078462,292,"특수 목적용 기계 제조업",29,"기타 기계 및 장비 제조업",29770.0238191966,NA,0
"(주)금호이엔지",NA,29199,"플라스틱,산업기계","플라스틱","GSN","소기업",3,12,"경상남도 김해시 진례면 고모로324번안길 83-21","경상남도 김해시 진례면 송현리 78",35.2102828202,128.6525484407,291,"일반 목적용 기계 제조업",29,"기타 기계 및 장비 제조업",16365.252267847,NA,0
"(주)금호이티시",NA,26421,"영상감시장치,방송장치,유.무선통신기기,전광판제어PCB,스피커,무선원격유도장치기관",NA,"GSN","소기업",3,4,"경상남도 김해시 칠산로291번길 16-5 (화목동)","경상남도 김해시 화목동 311-4",35.2350232545,128.5056885191,264,"통신 및 방송장비 제조업",26,"전자 부품, 컴퓨터, 영상, 음향 및 통신장비 제조업",29802.9520614685,NA,0
"(주)금호정밀",NA,30331,"자동차부품","알루미늄소재","GSN","소기업",3,42,"경상남도 김해시 한림면 용덕로 282-2","경상남도 김해시 한림면 안하리 645-1",35.3723419748,129.1483083339,303,"자동차 신품 부품 제조업",30,"자동차 및 트레일러 제조업",33619.3845288614,NA,0
"(주)금호테크",NA,31114,"메탈베어링",NA,"GSN","소기업",3,4,"경상남도 김해시 상동면 상동로 114-2","경상남도 김해시 상동면 우계리 1077-7",35.2490979414,128.5181384257,311,"선박 및 보트 건조업",31,"기타 운송장비 제조업",28831.2389629387,NA,0
"(주)금화하이텍",NA,25929,"특수용접",NA,"GSN","소기업",3,2,"경상남도 김해시 주촌면 서부로1541번길 133","경상남도 김해시 주촌면 내삼리 338-1",35.2677822753,128.7706763815,259,"기타 금속 가공제품 제조업",25,"금속 가공제품 제조업; 기계 및 가구 제외",8073.67451383704,NA,0
"(주)금화하이텍",NA,25929,"산업기계등",NA,"GSN","소기업",3,5,"경상남도 김해시 유하로133번길 94-2 (유하동)","경상남도 김해시 유하동 507-1",35.2795337662,128.3499315538,259,"기타 금속 가공제품 제조업",25,"금속 가공제품 제조업; 기계 및 가구 제외",44464.5629459042,NA,0
"(주)기다모산업",NA,30399,"자동차부품","렌즈,볼트","GSN","소기업",3,20,"경상남도 김해시 상동면 동북로913번길 16-10","경상남도 김해시 상동면 감노리 147",35.1744871451,128.1133482944,303,"자동차 신품 부품 제조업",30,"자동차 및 트레일러 제조업",65621.3867217732,NA,0
"(주)기명",NA,22212,"신발부픔",NA,"GSN","소기업",3,3,"경상남도 김해시 진례면 고모로526번길 70","경상남도 김해시 진례면 고모리 1021",35.2697731765,128.4650164186,222,"플라스틱 제품 제조업",22,"고무 및 플라스틱제품 제조업",33959.6284548034,NA,0
"(주)기미전자",NA,28519,"조리기기부품,청소기부품","철","GSN","소기업",3,35,"경상남도 김해시 진례면 평지길 40-13","경상남도 김해시 진례면 신안리 233-2",35.4526379765,128.7655023819,285,"가정용 기기 제조업",28,"전기장비 제조업",27015.9405674072,NA,0
"(주)기산",NA,29141,"베어링부시",NA,"GSN","소기업",3,2,"경상남도 김해시 진례면 고모로324번안길 25-32","경상남도 김해시 진례면 송현리 68",35.2799570437,128.7668784969,291,"일반 목적용 기계 제조업",29,"기타 기계 및 장비 제조업",9311.81138800765,NA,0
"(주)기산단조",NA,25912,"기계부품,단조",NA,"GSN","소기업",3,28,"경상남도 김해시 한림면 김해대로1538번길 13","경상남도 김해시 한림면 신천리 303-3",35.1130786086,128.3621478772,259,"기타 금속 가공제품 제조업",25,"금속 가공제품 제조업; 기계 및 가구 제외",44299.8756703284,NA,0
"(주)기산산업",NA,30399,"자동차부품","철재","GSN","소기업",3,20,"경상남도 김해시 한림면 가동로 9-25","경상남도 김해시 한림면 가산리 614-2",35.3045902777,128.876179931,303,"자동차 신품 부품 제조업",30,"자동차 및 트레일러 제조업",10680.4457066589,NA,0
"(주)기산산업단조공장",NA,25912,"단조품","환봉","GSN","소기업",3,20,"경상남도 김해시 한림면 가동로 9-53","경상남도 김해시 한림면 가산리 624-12",35.3810497727,129.0509627276,259,"기타 금속 가공제품 제조업",25,"금속 가공제품 제조업; 기계 및 가구 제외",27092.0919548097,NA,0
"(주)기성",NA,25991,"금속캔 및 기타포장용기","철판","GSN","소기업",3,33,"경상남도 김해시 생림면 나전로 345","경상남도 김해시 생림면 사촌리 85-2",35.1036098756,128.4191250825,259,"기타 금속 가공제품 제조업",25,"금속 가공제품 제조업; 기계 및 가구 제외",39622.645860379,NA,0
"(주)기성엔테크",NA,29199,"산업기계",NA,"GSN","소기업",3,2,"경상남도 김해시 진례면 송현로177번길 20","경상남도 김해시 진례면 송현리 487-1",35.1095863494,128.485941105,291,"일반 목적용 기계 제조업",29,"기타 기계 및 장비 제조업",33656.2308570615,NA,0
"(주)기평산업전기",NA,28303,"전기배선조립",NA,"GSN","소기업",3,4,"경상남도 김해시 구지로124번길 19-1 (대성동)","경상남도 김해시 대성동 355-7",35.1006738264,128.4827624381,283,"절연선 및 케이블 제조업",28,"전기장비 제조업",34283.9229331306,NA,0
"(주)나우산업","김해GoldenRoot일반산업단지",30331,"자동차 부품",NA,"GSN","중기업",2,85,"경상남도 김해시 주촌면 골든루트로129번길 90 (주촌면)","경상남도 김해시 주촌면 망덕리 876-7",34.9082262714,128.3087657375,303,"자동차 신품 부품 제조업",30,"자동차 및 트레일러 제조업",58655.9973810549,NA,0
"(주)나우이엔에스","김해테크노밸리일반산업단지",28123,"배전반 등",NA,"GSN","소기업",3,9,"경상남도 김해시 진례면 테크노밸리1로 20-20","경상남도 김해시 진례면 담안리 1528-4",34.9858721491,127.838847086,281,"전동기, 발전기 및 전기 변환ㆍ공급ㆍ제어 장치 제조업",28,"전기장비 제조업",94077.8867310768,"나우이엔에스",30
"(주)나하",NA,25912,"전자부품금형","전자부품","GSN","소기업",3,7,"경상남도 김해시 유하로 183 (유하동)","경상남도 김해시 유하동 424",35.1942728152,128.8353308938,259,"기타 금속 가공제품 제조업",25,"금속 가공제품 제조업; 기계 및 가구 제외",2355.21413296987,NA,0
"(주)나후사이언텍",NA,15220,"신발바닥재",NA,"GSN","소기업",3,14,"경상남도 김해시 주촌면 서부로1499번길 58","경상남도 김해시 주촌면 내삼리 1168",35.267779843,128.4847347225,152,"신발 및 신발 부분품 제조업",15,"가죽, 가방 및 신발 제조업",32154.7298503949,NA,0
"(주)낙원식품",NA,10742,"고추가루","고추","GSN","소기업",3,3,"경상남도 김해시 상동면 상동로 679","경상남도 김해시 상동면 대감리 407-14",35.2222394598,128.8211028004,107,"기타 식품 제조업",10,"식료품 제조업",1265.84261948679,NA,0
"(주)남경테크윈","김해GoldenRoot일반산업단지",28909,"공장 자동화기계 및 시험장비","금속","GSN","소기업",3,14,"경상남도 김해시 주촌면 골든루트로66번길 48","경상남도 김해시 주촌면 농소리 629-1",35.2424585861,128.7749047278,289,"기타 전기장비 제조업",28,"전기장비 제조업",6019.5174169563,NA,0
"(주)남광디씨텍","김해GoldenRoot일반산업단지",25924,"DIFF CASE","주조품","GSN","중기업",2,46,"경상남도 김해시 주촌면 골든루트로 103-50","경상남도 김해시 주촌면 농소리 625-7",35.3208178433,128.7210310194,259,"기타 금속 가공제품 제조업",25,"금속 가공제품 제조업; 기계 및 가구 제외",15466.550858509,NA,0
"(주)남녕테크",NA,29199,"열교환기","동관, 철판,","GSN","소기업",3,12,"경상남도 김해시 상동면 동북로1007번길 58-1, 외3","경상남도 김해시 상동면 감로리 211-1",35.106465907,128.7447132448,291,"일반 목적용 기계 제조업",29,"기타 기계 및 장비 제조업",14471.106182274,NA,0
"(주)남영플라스틱",NA,22299,"주방용품",NA,"GSN","소기업",3,10,"경상남도 김해시 한림면 안곡로333번길 78","경상남도 김해시 한림면 안곡리 729-7",35.2991966777,128.5007099957,222,"플라스틱 제품 제조업",22,"고무 및 플라스틱제품 제조업",31566.2407526022,NA,0
"(주)남전사",NA,27214,"전력량계","하부축수,계량장치,PCB,CPN","GSN","소기업",3,46,"경상남도 김해시 김해대로2635번길 12 (안동)","경상남도 김해시 안동 258-16",35.2288606128,128.8126232072,272,"측정, 시험, 항해, 제어 및 기타 정밀 기기 제조업; 광학 기기 제외",27,"의료, 정밀, 광학 기기 및 시계 제조업",2327.84675353567,NA,0
"(주)남진",NA,28111,"BLDC 카본섬유 모터","카본섬유화이버, 모터","GSN","소기업",3,3,"경상남도 김해시 칠산로413번길 35 (풍유동)","경상남도 김해시 풍유동 429-6",35.2349855727,128.7695558669,281,"전동기, 발전기 및 전기 변환ㆍ공급ㆍ제어 장치 제조업",28,"전기장비 제조업",6103.3858230921,NA,0
"(주)네이처스하이",NA,10122,"육류","지육(우육,돈육)","GSN","중기업",2,10,"경상남도 김해시 주촌면 서부로1409번길 30","경상남도 김해시 주촌면 내삼리 842-2",35.3734883003,128.4737045047,101,"도축, 육류 가공 및 저장 처리업",10,"식료품 제조업",37027.7133667205,NA,0
"(주)네일테크","김해테크노밸리일반산업단지",25943,"철못","선재","GSN","소기업",3,11,"경상남도 김해시 진례면 테크노밸리1로 20-8","경상남도 김해시 진례면 담안리 1565-2",35.2132191594,128.6044618178,259,"기타 금속 가공제품 제조업",25,"금속 가공제품 제조업; 기계 및 가구 제외",20734.9265262695,NA,0
"(주)네츄럴푸드",NA,10612,"도정","쌀","GSN","소기업",3,5,"경상남도 김해시 한림면 장재로 143","경상남도 김해시 한림면 금곡리 389-9",35.2066854404,128.635624561,106,"곡물 가공품, 전분 및 전분제품 제조업",10,"식료품 제조업",17922.7106601113,NA,0
"(주)넬슨우드",NA,32029,"마루판","합판","GSN","소기업",3,13,"경상남도 김해시 상동면 동북로437번길 83-92","경상남도 김해시 상동면 매리 128-19",35.293397737,128.5507986274,320,"가구 제조업",32,"가구 제조업",27031.6303929871,NA,0
"(주)넷크레이브",NA,26299,"인터텟게이트웨어,보일러컨트롤러,공기조화장치","철재","GSN","소기업",3,4,"경상남도 김해시 장유로149번길 50-25 (부곡동)","경상남도 김해시 부곡동 246-1",35.205624298,128.6637527703,262,"전자 부품 제조업",26,"전자 부품, 컴퓨터, 영상, 음향 및 통신장비 제조업",15373.7504030825,NA,0
"(주)노바스",NA,30201,"고소작업차",NA,"GSN","소기업",3,21,"경상남도 김해시 생림면 인제로 707-94","경상남도 김해시 생림면 나전리 422-16",35.2087015893,128.6775458278,302,"자동차 차체 및 트레일러 제조업",30,"자동차 및 트레일러 제조업",14098.983469807,NA,0
"(주)노바스코리아",NA,29229,"공작기계","철판","GSN","소기업",3,15,"경상남도 김해시 진례면 고모로216번길 159-12","경상남도 김해시 진례면 송현리 939-2",35.1567142172,128.0980014064,292,"특수 목적용 기계 제조업",29,"기타 기계 및 장비 제조업",67185.1885268131,NA,0
"(주)누리",NA,33302,"놀이터용장비",NA,"GSN","소기업",3,3,"경상남도 김해시 칠산로413번길 38 (풍유동)","경상남도 김해시 풍유동 432-6",35.2136730067,128.6457252258,333,"운동 및 경기용구 제조업",33,"기타 제품 제조업",16977.5387573696,NA,0
"(주)누리",NA,32091,"의자 및 부품 외",NA,"GSN","소기업",3,5,"경상남도 김해시 생림면 나전로249번길 42-6","경상남도 김해시 생림면 나전리 912-4",35.3651781098,129.0429513589,320,"가구 제조업",32,"가구 제조업",25375.9175198482,NA,0
"(주)누리환경기술센터",NA,20119,"악취제거제","화학약품","GSN","소기업",3,14,"경상남도 김해시 어방동 607","경상남도 김해시 어방동 607",35.3697765155,129.0291696512,201,"기초 화학물질 제조업",20,"화학 물질 및 화학제품 제조업; 의약품 제외",24791.9583054751,NA,0
"(주)뉴텍웰니스",NA,33301,"헬스기구",NA,"GSN","중기업",2,70,"경상남도 김해시 한림면 용덕로23번길 109-38","경상남도 김해시 한림면 용덕리 715-22",35.3471636911,128.51014205,333,"운동 및 경기용구 제조업",33,"기타 제품 제조업",32744.7005500105,NA,0
"(주)늘푸른",NA,31114,"선박부분품","철재","GSN","소기업",3,8,"경상남도 김해시 진례면 고모로324번길 185-3","경상남도 김해시 진례면 담안리 1412-3",35.205624298,128.6637527703,311,"선박 및 보트 건조업",31,"기타 운송장비 제조업",15373.7504030825,NA,0
"(주)니드테크",NA,29291,"제지관련롤",NA,"GSN","소기업",3,3,"경상남도 김해시 진영읍 진영로454번길 73","경상남도 김해시 진영읍 내룡리 314-2",35.2839344488,128.8174442023,292,"특수 목적용 기계 제조업",29,"기타 기계 및 장비 제조업",7727.10203172875,NA,0
"(주)다다시스템",NA,32029,"붙박이장,부엌가구","합판,씨트","GSN","소기업",3,10,"경상남도 김해시 주촌면 서부로1701번안길 183-58","경상남도 김해시 주촌면 원지리 409-6",35.2172459406,128.6508125715,320,"가구 제조업",32,"가구 제조업",16514.3153296234,NA,0
"(주)다산기업",NA,29199,"완충기","철","GSN","소기업",3,4,"경상남도 김해시 상동면 소락로 115","경상남도 김해시 상동면 묵방리 171-1",35.1176061078,128.1031387585,291,"일반 목적용 기계 제조업",29,"기타 기계 및 장비 제조업",67296.8746805897,NA,0
"(주)다솜",NA,25112,"휀스",NA,"GSN","소기업",3,4,"경상남도 김해시 칠산로179번길 106 (이동)","경상남도 김해시 이동 191-4",35.3169212442,128.2787782303,251,"구조용 금속제품, 탱크 및 증기발생기 제조업",25,"금속 가공제품 제조업; 기계 및 가구 제외",51600.4751571228,NA,0
"(주)다스코",NA,31114,"선박구성품","열교환기","GSN","소기업",3,28,"경상남도 김해시 한림면 김해대로916번길 92 (총 2 필지)","경상남도 김해시 한림면 병동리 800-0",35.2679511912,128.750191292,311,"선박 및 보트 건조업",31,"기타 운송장비 제조업",9473.86686305742,NA,0
"(주)다스코",NA,31114,"선박용공기조화기기","철제류","GSN","소기업",3,10,"경상남도 김해시 생림면 인제로694번길 19-52","경상남도 김해시 생림면 나전리 255",35.3244416127,128.7660051269,311,"선박 및 보트 건조업",31,"기타 운송장비 제조업",13518.8214013158,NA,0
"(주)다양테크",NA,31114,"선박부품",NA,"GSN","소기업",3,4,"경상남도 김해시 김해대로2596번길 23-5 (안동)","경상남도 김해시 안동 539-33",35.2086602735,128.640355373,311,"선박 및 보트 건조업",31,"기타 운송장비 제조업",17481.7161393181,NA,0
"(주)다우링에너지",NA,19221,"감압증류외","폐유","GSN","소기업",3,9,"경상남도 김해시 한림면 김해대로1402번길 147","경상남도 김해시 한림면 신천리 841-2",35.244055204,128.7774428514,192,"석유 정제품 제조업",19,"코크스, 연탄 및 석유정제품 제조업",5913.9867374787,NA,0
"(주)다움",NA,25112,"알루미늄 복합판넬","알루미늄 복합판넬,조립가공","GSN","소기업",3,3,"경상남도 김해시 상동면 동북로1007번길 45","경상남도 김해시 상동면 감노리 217",35.2466672638,128.6267253342,251,"구조용 금속제품, 탱크 및 증기발생기 제조업",25,"금속 가공제품 제조업; 기계 및 가구 제외",19022.7991389941,NA,0
"(주)다윈",NA,10791,"커피믹스",NA,"GSN","소기업",3,7,"경상남도 김해시 진영읍 하계로 254","경상남도 김해시 진영읍 하계리 274",35.2469138517,128.61368818,107,"기타 식품 제조업",10,"식료품 제조업",20195.4709508222,NA,0
"(주)다윈지엠",NA,23119,"복층유리",NA,"GSN","소기업",3,20,"경상남도 김해시 생림면 안양로 181","경상남도 김해시 생림면 안양리 557-2",35.0632392358,128.0571035379,231,"유리 및 유리제품 제조업",23,"비금속 광물제품 제조업",72622.6908410526,NA,0
"(주)다이나루브아시아",NA,20499,"오일첨가제","오일","GSN","소기업",3,10,"경상남도 김해시 주촌면 소망길 38-1","경상남도 김해시 주촌면 망덕리 520-1",35.2070113302,128.6349903833,204,"기타 화학제품 제조업",20,"화학 물질 및 화학제품 제조업; 의약품 제외",17978.4407176522,NA,0
"(주)다이와테쿠노",NA,28519,"전자동애견목욕기",NA,"GSN","소기업",3,3,"경상남도 김해시 김해대로2529번길 35 (삼정동)","경상남도 김해시 삼정동 652-1",35.1529032022,128.477230154,285,"가정용 기기 제조업",28,"전기장비 제조업",33063.7429329138,NA,0
"(주)다인제관",NA,25991,"냉동공조기제조",NA,"GSN","소기업",3,19,"경상남도 김해시 상동면 동북로1109번길 47-60","경상남도 김해시 상동면 감노리 375",35.1534439546,128.4773781976,259,"기타 금속 가공제품 제조업",25,"금속 가공제품 제조업; 기계 및 가구 제외",33037.9310623885,NA,0
"(주)다인제관",NA,25991,"스틸캔",NA,"GSN","소기업",3,16,"경상남도 김해시 상동면 묵방로 89-7","경상남도 김해시 상동면 우계리 82-3",35.208691575,128.651481695,259,"기타 금속 가공제품 제조업",25,"금속 가공제품 제조업; 기계 및 가구 제외",16469.4502110214,NA,0
"(주)다일바이오",NA,23324,"도금",NA,"GSN","소기업",3,15,"경상남도 김해시 진영읍 본산1로 31","경상남도 김해시 진영읍 본산리 921-4",35.3202781642,128.7474911938,233,"시멘트, 석회, 플라스터 및 그 제품 제조업",23,"비금속 광물제품 제조업",13961.2230505764,NA,0
"(주)다참",NA,10129,"한우곰탕",NA,"GSN","소기업",3,6,"경상남도 김해시 김해대로2635번길 60-6 (안동)","경상남도 김해시 안동 161-55",35.5141962338,128.4930040699,101,"도축, 육류 가공 및 저장 처리업",10,"식료품 제조업",45271.780606114,NA,0
"(주)다한",NA,23111,"복층유리","1차가공된판유리","GSN","소기업",3,10,"경상남도 김해시 상동면 동북로473번길 21","경상남도 김해시 상동면 매리 153-8",35.3019859776,128.7938129273,231,"유리 및 유리제품 제조업",23,"비금속 광물제품 제조업",10226.9904526546,NA,0
"(주)다홈",NA,28511,"주방용전기기기",NA,"GSN","소기업",3,5,"경상남도 김해시 한림면 김해대로1022번길 103","경상남도 김해시 한림면 병동리 131-1",35.205624298,128.6637527703,285,"가정용 기기 제조업",28,"전기장비 제조업",15373.7504030825,NA,0
"(주)단아",NA,32029,"일반목재가구","판재","GSN","소기업",3,18,"경상남도 김해시 상동면 상동로 279-32","경상남도 김해시 상동면 우계리 726",35.2997877898,128.7998892369,320,"가구 제조업",32,"가구 제조업",9818.71193853178,NA,0
"(주)대경",NA,29294,"금형","철판","GSN","중기업",2,70,"경상남도 김해시 유하로226번길 48 (유하동)","경상남도 김해시 유하동 80",35.4431631666,129.0385980405,292,"특수 목적용 기계 제조업",29,"기타 기계 및 장비 제조업",31481.6726298272,"대경정밀",3
"(주)대경수지",NA,38321,"플라스틱칩","플라스틱","GSN","소기업",3,6,"경상남도 김해시 한림면 김해대로1538번길 22-36","경상남도 김해시 한림면 신천리 330-21",35.2677822753,128.7706763815,383,"해체, 선별 및 원료 재생업",38,"폐기물 수집, 운반, 처리 및 원료 재생업",8073.67451383704,NA,0
"(주)대경제이엠비",NA,29229,"공작기계,아파트내부마감",NA,"GSN","소기업",3,5,"경상남도 김해시 한림면 안곡로333번길 38","경상남도 김해시 한림면 안곡리 701-2",35.3737066831,128.4894663943,292,"특수 목적용 기계 제조업",29,"기타 기계 및 장비 제조업",35783.4953772057,NA,0
"(주)대경케미칼",NA,33920,"사무용품",NA,"GSN","소기업",3,10,"경상남도 김해시 상동면 묵방로 80","경상남도 김해시 상동면 우계리 78-10",35.3468374363,129.0685306405,339,"그 외 기타 제품 제조업",33,"기타 제품 제조업",25983.960762747,NA,0
"(주)대경케미칼",NA,20493,"접착제","안료,수지","GSN","소기업",3,18,"경상남도 김해시 상동면 동북로473번길 266-2","경상남도 김해시 상동면 매리 981-1",35.2469138517,128.61368818,204,"기타 화학제품 제조업",20,"화학 물질 및 화학제품 제조업; 의약품 제외",20195.4709508222,NA,0
"(주)대경케미칼2공장",NA,33920,"양면테이프","고무,수지,송진","GSN","소기업",3,5,"경상남도 김해시 상동면 묵방로 89-25","경상남도 김해시 상동면 우계리 82-2",35.2156523231,128.6523567177,339,"그 외 기타 제품 제조업",33,"기타 제품 제조업",16372.5719744794,NA,0
"(주)대경테크",NA,30399,"자동차부품",NA,"GSN","소기업",3,10,"경상남도 김해시 상동면 상동로 224-15","경상남도 김해시 상동면 우계리 1049-22",35.441885156,129.0744226072,303,"자동차 신품 부품 제조업",30,"자동차 및 트레일러 제조업",33418.9379039416,NA,0
"(주)대경플렉스",NA,22191,"익스펜션 후렉시블 라바 조인트","고무","GSN","소기업",3,22,"경상남도 김해시 생림면 생림대로 519-81","경상남도 김해시 생림면 나전리 1178-2",35.327966513,128.7166902913,221,"고무제품 제조업",22,"고무 및 플라스틱제품 제조업",16326.0615155203,NA,0
"(주)대광금속",NA,25913,"볼트,너트","환봉","GSN","소기업",3,23,"경상남도 김해시 주촌면 서부로1499번길 101-68","경상남도 김해시 주촌면 내삼리 1244-18",35.5931523377,128.4747454173,259,"기타 금속 가공제품 제조업",25,"금속 가공제품 제조업; 기계 및 가구 제외",53020.9487872278,NA,0
"(주)대광농산",NA,10309,"김치","채소,양념류","GSN","소기업",3,25,"경상남도 김해시 율하동 1048","경상남도 김해시 율하동 1048",35.2310163344,128.9102254397,103,"과실, 채소 가공 및 저장 처리업",10,"식료품 제조업",7314.94396500432,NA,0
"(주)대광패키지",NA,17211,"골판지","원지","GSN","소기업",3,14,"경상남도 김해시 진례면 고모로 591-19","경상남도 김해시 진례면 고모리 146-9",35.3623095974,129.0618606478,172,"골판지, 종이 상자 및 종이 용기 제조업",17,"펄프, 종이 및 종이제품 제조업",26502.6171867435,NA,0
"(주)대금물산",NA,13910,"카펫마루덮개",NA,"GSN","소기업",3,10,"경상남도 김해시 진례면 초전리 883-4","경상남도 김해시 진례면 초전리 883-4",35.3565324274,129.0275926164,139,"기타 섬유제품 제조업",13,"섬유제품 제조업; 의복 제외",23693.4414594055,NA,0
"(주)대금이엔지",NA,29299,"산업용기계","철판","GSN","소기업",3,9,"경상남도 김해시 상동면 묵방로120번길 26","경상남도 김해시 상동면 우계리 104-18",35.3158179811,128.7526630424,292,"특수 목적용 기계 제조업",29,"기타 기계 및 장비 제조업",13289.4916298169,NA,0
"(주)대길산업",NA,17124,"가공지","플라스틱","GSN","소기업",3,17,"경상남도 김해시 상동면 묵방로 107","경상남도 김해시 상동면 우계리 85-2",35.4192312843,128.6563069278,171,"펄프, 종이 및 판지 제조업",17,"펄프, 종이 및 종이제품 제조업",27703.1313589248,NA,0
"(주)대남산업",NA,38321,"파쇄유리","병유리","GSN","소기업",3,3,"경상남도 김해시 진례면 고모로 58-35","경상남도 김해시 진례면 산본리 1116-1",35.2040261128,128.6579820798,383,"해체, 선별 및 원료 재생업",38,"폐기물 수집, 운반, 처리 및 원료 재생업",15911.1065937063,NA,0
"(주)대덕","김해테크노밸리일반산업단지",29280,"산업용로봇",NA,"GSN","소기업",3,9,"경상남도 김해시 진례면 테크노밸리로 145","경상남도 김해시 진례면 고모리 1523-1",35.2818478491,128.7729682507,292,"특수 목적용 기계 제조업",29,"기타 기계 및 장비 제조업",9136.73948757701,NA,0
"(주)대동",NA,13109,"알로바,벨로아,메쉬류","폴리에스테르,나일론","GSN","소기업",3,22,"경상남도 김해시 상동면 상동로 739-12","경상남도 김해시 상동면 매리 131-16",35.3697945509,129.0389833346,131,"방적 및 가공사 제조업",13,"섬유제품 제조업; 의복 제외",25445.9708677446,NA,0
"(주)대동금속열처리",NA,30399,"자동차부품","철재","GSN","소기업",3,9,"경상남도 김해시 진례면 서부로411번길 41","경상남도 김해시 진례면 청천리 6",35.1021977914,128.4244396925,303,"자동차 신품 부품 제조업",30,"자동차 및 트레일러 제조업",39213.2016671652,NA,0
"(주)대동기계",NA,29229,"공작기계","철판","GSN","소기업",3,28,"경상남도 김해시 한림면 한림로 119-9","경상남도 김해시 한림면 명동리 136-1",35.3001469733,128.8324497539,292,"특수 목적용 기계 제조업",29,"기타 기계 및 장비 제조업",9408.58582511597,NA,0
"(주)대동기업",NA,25113,"조선의장품 MOORING 피팅","철판 형강류","GSN","소기업",3,16,"경상남도 김해시 진영읍 내룡리 412","경상남도 김해시 진영읍 내룡리 412",35.2876017529,128.8833668995,251,"구조용 금속제품, 탱크 및 증기발생기 제조업",25,"금속 가공제품 제조업; 기계 및 가구 제외",9271.94413434112,NA,0
"(주)대동식품",NA,10402,"유지","동물성유지","GSN","소기업",3,5,"경상남도 김해시 주촌면 서부로1638번길 62","경상남도 김해시 주촌면 천곡리 1326",35.2398744326,128.6303635383,104,"동물성 및 식물성 유지 제조업",10,"식료품 제조업",18572.7324002439,NA,0
"(주)대동알미늄","김해진영농공단지",30399,"자동차, 항공기 부품","알루미늄","GSN","소기업",3,3,"경상남도 김해시 진영읍 서부로179번길 39-73","경상남도 김해시 진영읍 죽곡리 7-3",35.2155653397,128.8041118058,303,"자동차 신품 부품 제조업",30,"자동차 및 트레일러 제조업",2555.63211973758,NA,0
"(주)대동이알에스",NA,29176,"열교환기",NA,"GSN","소기업",3,2,"경상남도 김해시 장유로 167-19 (부곡동)","경상남도 김해시 부곡동 748-3",35.2126826378,128.8013548132,291,"일반 목적용 기계 제조업",29,"기타 기계 및 장비 제조업",2822.06466058866,NA,0
"(주)대동인더스트리",NA,22241,"기계조립용부품",NA,"GSN","소기업",3,12,"경상남도 김해시 진례면 산본리 56-4","경상남도 김해시 진례면 산본리 56-4",34.8388386527,128.4145363599,222,"플라스틱 제품 제조업",22,"고무 및 플라스틱제품 제조업",56544.9294472933,NA,0
"(주)대동특장차",NA,30201,"특장차","철판","GSN","소기업",3,19,"경상남도 김해시 김해대로2567번길 15 (어방동)","경상남도 김해시 어방동 1066-19",35.1723433161,128.1139165261,302,"자동차 차체 및 트레일러 제조업",30,"자동차 및 트레일러 제조업",65587.4889656156,NA,0
"(주)대동플랜트",NA,25113,"금속조립구","금속","GSN","소기업",3,10,"경상남도 김해시 진영읍 진산대로 234","경상남도 김해시 진영읍 진영리 674-56",35.4129748815,128.7634195192,251,"구조용 금속제품, 탱크 및 증기발생기 제조업",25,"금속 가공제품 제조업; 기계 및 가구 제외",22800.6412376902,NA,0
"(주)대력",NA,10749,"와사비","와사비","GSN","소기업",3,12,"경상남도 김해시 칠산로151번길 34 (이동)","경상남도 김해시 이동 624-4",35.3136665733,128.3611041961,107,"기타 식품 제조업",10,"식료품 제조업",44230.9672916918,NA,0
"(주)대룡산업",NA,26299,"전자부품",NA,"GSN","소기업",3,5,"경상남도 김해시 칠산로209번길 1 (이동)","경상남도 김해시 이동 116-6",35.2410902517,128.5066942232,262,"전자 부품 제조업",26,"전자 부품, 컴퓨터, 영상, 음향 및 통신장비 제조업",29767.5772116573,NA,0
"(주)대륭산업",NA,30399,"파이프인발","파이프원관","GSN","소기업",3,39,"경상남도 김해시 주촌면 서부로1701번길 8","경상남도 김해시 주촌면 선지리 323-1",35.2983425875,128.8718608645,303,"자동차 신품 부품 제조업",30,"자동차 및 트레일러 제조업",9891.1017385867,NA,0
"(주)대륭씨앤에이",NA,24221,"금속표면처리","SHOT BALL, PAWT","GSN","소기업",3,45,"경상남도 김해시 생림면 생림리 293","경상남도 김해시 생림면 생림리 293",35.4307220465,129.1775692594,242,"1차 비철금속 제조업",24,"1차 금속 제조업",39462.6653778285,NA,0
"(주)대륭에프.에이",NA,28123,"자동제어반",NA,"GSN","소기업",3,14,"경상남도 김해시 주촌면 서부로1701번길 300-16","경상남도 김해시 주촌면 덕암리 219",35.6170671501,128.2668475196,281,"전동기, 발전기 및 전기 변환ㆍ공급ㆍ제어 장치 제조업",28,"전기장비 제조업",67991.5580568349,NA,0
"(주)대림산업",NA,20499,"우레탄이형제","우레탄","GSN","소기업",3,3,"경상남도 김해시 주촌면 서부로1637번안길 22","경상남도 김해시 주촌면 덕암리 523",35.2463229382,128.5112410552,204,"기타 화학제품 제조업",20,"화학 물질 및 화학제품 제조업; 의약품 제외",29416.8313925278,NA,0
"(주)대림에너지",NA,29210,"보일러외",NA,"GSN","소기업",3,8,"경상남도 김해시 한림면 장방로222번길 14","경상남도 김해시 한림면 장방리 958-2",35.1684717138,128.1119030473,292,"특수 목적용 기계 제조업",29,"기타 기계 및 장비 제조업",65804.4762919695,NA,0
"(주)대림철강",NA,24121,"철근","신철","GSN","소기업",3,31,"경상남도 김해시 진영읍 김해대로 106","경상남도 김해시 진영읍 좌곤리 507",35.212849182,128.7995432232,241,"1차 철강 제조업",24,"1차 금속 제조업",2984.3816205873,NA,0
"(주)대림테크",NA,26299,"전자부품",NA,"GSN","소기업",3,29,"경상남도 김해시 주촌면 서부로1541번안길 44-47","경상남도 김해시 주촌면 내삼리 361-1",35.2166409588,128.5973343737,262,"전자 부품 제조업",26,"전자 부품, 컴퓨터, 영상, 음향 및 통신장비 제조업",21382.5731638814,NA,0
"(주)대림텍스",NA,13213,"자동차시트지,신발지,의류지",NA,"GSN","중기업",2,50,"경상남도 김해시 상동면 동북로1007번길 42","경상남도 김해시 상동면 감노리 232-44",35.24725234,128.774186286,132,"직물 직조 및 직물제품 제조업",13,"섬유제품 제조업; 의복 제외",6356.25335355858,NA,0
"(주)대명케이알",NA,24290,"실리카샌드","금속","GSN","소기업",3,18,"경상남도 김해시 진영읍 하계로138번길 43","경상남도 김해시 진영읍 하계리 406",35.3673860443,129.1598222147,242,"1차 비철금속 제조업",24,"1차 금속 제조업",34246.0613947757,NA,0
"(주)대백",NA,15121,"핸드백","가죽","GSN","소기업",3,22,"경상남도 김해시 금관대로804번길 85 (명법동)","경상남도 김해시 명법동 644-1",35.3885546381,128.7263734836,151,"가죽, 가방 및 유사 제품 제조업",15,"가죽, 가방 및 신발 제조업",21491.9402802575,NA,0
"(주)대산공업",NA,31202,"철도차량부품외",NA,"GSN","소기업",3,10,"경상남도 김해시 진영읍 서부로396번길 36","경상남도 김해시 진영읍 의전리 343-4",35.2416644046,128.6202285847,312,"철도장비 제조업",31,"기타 운송장비 제조업",19514.3914442179,NA,0
"(주)대산시스템",NA,28423,"전광판,열차행선안내장치",NA,"GSN","소기업",3,5,"경상남도 김해시 주촌면 소망길 88, 경남테크노파크 시험생산동 104호","경상남도 김해시 주촌면 농소리 155-1",35.314954779,128.7576559983,284,"전구 및 조명장치 제조업",28,"전기장비 제조업",12966.0012000928,NA,0
"(주)대산엔지니어링",NA,31114,"조선의장품","철재","GSN","소기업",3,13,"경상남도 김해시 생림면 생림대로950번길 19","경상남도 김해시 생림면 봉림리 947-2",35.2342777049,128.9164828668,311,"선박 및 보트 건조업",31,"기타 운송장비 제조업",7957.08472732935,NA,0
"(주)대산정밀",NA,25941,"볼트","철재","GSN","소기업",3,16,"경상남도 김해시 주촌면 서부로 1440 (총 5 필지)","경상남도 김해시 주촌면 내삼리 814-1",35.205624298,128.6637527703,259,"기타 금속 가공제품 제조업",25,"금속 가공제품 제조업; 기계 및 가구 제외",15373.7504030825,NA,0
"(주)대산케미칼",NA,33920,"천(면)점착테이프",NA,"GSN","소기업",3,7,"경상남도 김해시 생림면 생림대로950번길 17","경상남도 김해시 생림면 봉림리 949-3",35.4670020051,129.083229811,339,"그 외 기타 제품 제조업",33,"기타 제품 제조업",36061.4186185767,NA,0
"(주)대산플랜트",NA,33309,"특수직물",NA,"GSN","소기업",3,29,"경상남도 김해시 한림면 가동로 50","경상남도 김해시 한림면 가동리 586-1",35.3158135112,128.9605322084,333,"운동 및 경기용구 제조업",33,"기타 제품 제조업",16144.6626845762,NA,0
"(주)대산플랜트","김해안하농공단지",31112,"보트",NA,"GSN","소기업",3,2,"경상남도 김해시 한림면 용덕로302번길 29-24","경상남도 김해시 한림면 안하리 2002-2",35.205624298,128.6637527703,311,"선박 및 보트 건조업",31,"기타 운송장비 제조업",15373.7504030825,NA,0
"(주)대석SRF",NA,33992,"성형",NA,"GSN","소기업",3,8,"경상남도 김해시 상동면 소락로 39","경상남도 김해시 상동면 묵방리 904-2",35.2272337434,128.8189793996,339,"그 외 기타 제품 제조업",33,"기타 제품 제조업",1784.4951151722,NA,0
"(주)대성",NA,30310,"자동차부품",NA,"GSN","소기업",3,10,"경상남도 김해시 안곡로 106 (삼계동)","경상남도 김해시 삼계동 1275-1",35.3696622835,129.0625751219,303,"자동차 신품 부품 제조업",30,"자동차 및 트레일러 제조업",27061.7234327159,NA,0
"(주)대성공조",NA,25913,"닥트기구등","철재","GSN","소기업",3,13,"경상남도 김해시 진례면 서부로396번길 61-21","경상남도 김해시 진례면 청천리 415-1",35.2905038667,128.8019915284,259,"기타 금속 가공제품 제조업",25,"금속 가공제품 제조업; 기계 및 가구 제외",8779.60054325508,NA,0
"(주)대성레미콘",NA,23322,"레미콘","시멘,모래,자갈","GSN","소기업",3,36,"경상남도 김해시 구산동 462","경상남도 김해시 구산동 462",35.1793102748,128.1189611653,233,"시멘트, 석회, 플라스터 및 그 제품 제조업",23,"비금속 광물제품 제조업",65074.4729380245,NA,0
"(주)대성산업기술",NA,29173,"공조용팬","철재","GSN","소기업",3,1,"경상남도 김해시 김해대로2579번길 28 (안동)","경상남도 김해시 안동 428-3",35.5102881439,127.729093286,291,"일반 목적용 기계 제조업",29,"기타 기계 및 장비 제조업",105456.919022267,NA,0
"(주)대성산전",NA,28123,"전기판넬","철판","GSN","소기업",3,10,"경상남도 김해시 한림면 김해대로916번길 54-7","경상남도 김해시 한림면 병동리 1053",35.3793057413,129.0230114589,281,"전동기, 발전기 및 전기 변환ㆍ공급ㆍ제어 장치 제조업",28,"전기장비 제조업",25143.4240157617,NA,0
"(주)대성이엔지",NA,25913,"주형및금형",NA,"GSN","소기업",3,19,"경상남도 김해시 상동면 동북로437번길 83-33","경상남도 김해시 상동면 매리 128-31",34.7534522174,127.9020253165,259,"기타 금속 가공제품 제조업",25,"금속 가공제품 제조업; 기계 및 가구 제외",99188.8419700211,NA,0
"(주)대성이엔지",NA,25913,"자동차부품",NA,"GSN","소기업",3,21,"경상남도 김해시 상동면 동북로437번길 143-30","경상남도 김해시 상동면 매리 607-55",35.3668790543,129.1516134558,259,"기타 금속 가공제품 제조업",25,"금속 가공제품 제조업; 기계 및 가구 제외",33570.1182604166,NA,0
"(주)대성축산기업",NA,10129,"한우 및 한돈","한우지육,한돈지육","GSN","소기업",3,20,"경상남도 김해시 주촌면 서부로1403번길 46","경상남도 김해시 주촌면 내삼리 885-0",35.267216106,128.7803667035,101,"도축, 육류 가공 및 저장 처리업",10,"식료품 제조업",7440.46577136495,NA,0
"(주)대성테크윈",NA,29172,"공기조화장치","철판","GSN","소기업",3,11,"경상남도 김해시 상동면 상동로 450-9","경상남도 김해시 상동면 우계리 51-3",35.2995031738,128.817223585,291,"일반 목적용 기계 제조업",29,"기타 기계 및 장비 제조업",9435.79757197882,NA,0
"(주)대성티엠씨","김해테크노밸리일반산업단지",25119,"항공기부품,리프트.운반대차,스테커 외","철판,환봉","GSN","소기업",3,30,"경상남도 김해시 진례면 테크노밸리1로 28","경상남도 김해시 진례면 담안리 1529-6",35.2313262141,128.8191679768,251,"구조용 금속제품, 탱크 및 증기발생기 제조업",25,"금속 가공제품 제조업; 기계 및 가구 제외",2132.47190561737,NA,0
"(주)대성피앤엠",NA,29171,"냉동기",NA,"GSN","소기업",3,7,"경상남도 김해시 생림면 상동로 52","경상남도 김해시 생림면 나전리 316-11",35.1715779235,128.1077359277,291,"일반 목적용 기계 제조업",29,"기타 기계 및 장비 제조업",66155.3753324472,NA,0
"(주)대성하이테크",NA,22222,"집진기","에프알피","GSN","소기업",3,10,"경상남도 김해시 상동면 우계리 816-4","경상남도 김해시 상동면 우계리 816-4",35.2422025477,128.7741371164,222,"플라스틱 제품 제조업",22,"고무 및 플라스틱제품 제조업",6066.14670825228,NA,0
"(주)대승","김해진영농공단지",29131,"오수펌프,모노펌프","스텐,주물","GSN","중기업",2,19,"경상남도 김해시 진영읍 서부로179번길 39-110","경상남도 김해시 진영읍 죽곡리 9-3",35.2058009016,128.6340617704,291,"일반 목적용 기계 제조업",29,"기타 기계 및 장비 제조업",18070.3862305167,NA,0
"(주)대승아텍",NA,16102,"합판가공품","목재","GSN","소기업",3,12,"경상남도 김해시 상동면 상동로 912","경상남도 김해시 상동면 매리 1091-23",35.2256710379,128.9211971558,161,"제재 및 목재 가공업",16,"목재 및 나무제품 제조업; 가구 제외",8184.99347553233,NA,0
"(주)대승엔지니어링",NA,29175,"하수수처리장치및구성품",NA,"GSN","소기업",3,6,"경상남도 김해시 진례면 고모로324번길 135-39","경상남도 김해시 진례면 담안리 1244",35.236969815,128.7775445888,291,"일반 목적용 기계 제조업",29,"기타 기계 및 장비 제조업",5522.23426486471,NA,0
"(주)대승엔지니어링","김해테크노밸리일반산업단지",29175,"액체여과기, 기타물품취급장비등",NA,"GSN","소기업",3,11,"경상남도 김해시 진례면 테크노밸리로 89, (주)대승엔지니어링","경상남도 김해시 진례면 고모리 1569-5",35.3771227322,129.0205833197,291,"일반 목적용 기계 제조업",29,"기타 기계 및 장비 제조업",24815.8913072599,NA,0
"(주)대승중공업",NA,25113,"강구조물",NA,"GSN","소기업",3,2,"경상남도 김해시 한림면 가동로 38 (총 2 필지)","경상남도 김해시 한림면 가동리 589",35.2188281328,128.8323889605,251,"구조용 금속제품, 탱크 및 증기발생기 제조업",25,"금속 가공제품 제조업; 기계 및 가구 제외",387.077863666359,NA,0
"(주)대신기계",NA,29171,"전자부품",NA,"GSN","소기업",3,5,"경상남도 김해시 생림면 상동로 70","경상남도 김해시 생림면 나전리 299-6",34.8441264976,128.4377444784,291,"일반 목적용 기계 제조업",29,"기타 기계 및 장비 제조업",54695.7846530762,NA,0
"(주)대신물산",NA,10799,"곤약묵","구약감자","GSN","소기업",3,26,"경상남도 김해시 진영읍 본산로 290","경상남도 김해시 진영읍 본산리 312-9",35.5925475983,128.469910025,107,"기타 식품 제조업",10,"식료품 제조업",53238.3639842368,NA,0
"(주)대신물산",NA,10799,"곤약",NA,"GSN","소기업",3,9,"경상남도 김해시 진영읍 본산로 234","경상남도 김해시 진영읍 본산리 306-1",35.2735970667,128.3733283097,107,"기타 식품 제조업",10,"식료품 제조업",42259.8047151283,NA,0
"(주)대신에스엔씨","김해테크노밸리일반산업단지",30399,"전기차 쿨링플레이트, 에어컨콘덴서, 방위산업부품","알루미늄, 철재류","GSN","소기업",3,16,"경상남도 김해시 진례면 테크노밸리로 186, (주)대신에스엔씨","경상남도 김해시 진례면 고모리 210-1",35.2466672638,128.6267253342,303,"자동차 신품 부품 제조업",30,"자동차 및 트레일러 제조업",19022.7991389941,NA,0
"(주)대신에이엔씨",NA,30399,"자동차부품","철","GSN","소기업",3,20,"경상남도 김해시 진영읍 본산로212번길 10","경상남도 김해시 진영읍 본산리 303-8",35.2466672638,128.6267253342,303,"자동차 신품 부품 제조업",30,"자동차 및 트레일러 제조업",19022.7991389941,NA,0
"(주)대신텍스",NA,13109,"S.W/MESH(원단)",NA,"GSN","소기업",3,10,"경상남도 김해시 상동면 동북로473번길 44","경상남도 김해시 상동면 매리 204-1",35.205624298,128.6637527703,131,"방적 및 가공사 제조업",13,"섬유제품 제조업; 의복 제외",15373.7504030825,NA,0
"(주)대아테크",NA,22241,"프랜지",NA,"GSN","소기업",3,12,"경상남도 김해시 진례면 고모로582번길 28 (총 2 필지)","경상남도 김해시 진례면 고모리 388-1",35.2507286203,128.7803951807,222,"플라스틱 제품 제조업",22,"고무 및 플라스틱제품 제조업",6134.52095845653,NA,0
"(주)대아테크윈","김해GoldenRoot일반산업단지",25112,"pb커버 외",NA,"GSN","소기업",3,5,"경상남도 김해시 주촌면 농소리 622-9","경상남도 김해시 주촌면 농소리 622-9",35.2509374564,128.7804177654,251,"구조용 금속제품, 탱크 및 증기발생기 제조업",25,"금속 가공제품 제조업; 기계 및 가구 제외",6147.79360622811,NA,0
"(주)대아트란스",NA,16232,"목재상자,철재품","철판","GSN","소기업",3,22,"경상남도 김해시 상동면 동북로1109번길 47-10","경상남도 김해시 상동면 감로리 356-2",35.3831358028,129.018280274,162,"나무제품 제조업",16,"목재 및 나무제품 제조업; 가구 제외",25160.7842003235,NA,0
"(주)대양그린텍",NA,25122,"탱크로리제작외",NA,"GSN","소기업",3,13,"경상남도 김해시 상동면 상동로197번길 3 (총 2 필지)","경상남도 김해시 상동면 우계리 1060-2",35.1705915921,128.1137060327,251,"구조용 금속제품, 탱크 및 증기발생기 제조업",25,"금속 가공제품 제조업; 기계 및 가구 제외",65621.726129178,NA,0
"(주)대양금속","김해GoldenRoot일반산업단지",25929,"스테인리스 냉연강판","스테일레스 Hot Coil","GSN","소기업",3,14,"경상남도 김해시 주촌면 골든루트로 80-115","경상남도 김해시 주촌면 농소리 626-3",35.1741847418,128.1055573513,259,"기타 금속 가공제품 제조업",25,"금속 가공제품 제조업; 기계 및 가구 제외",66331.6591033538,NA,0
"(주)대양스틸","김해테크노밸리일반산업단지",25929,"철판 절단",NA,"GSN","소기업",3,1,"경상남도 김해시 진례면 테크노밸리길 226, (주)대양스틸","경상남도 김해시 진례면 담안리 239-25",35.3195109974,128.615935956,259,"기타 금속 가공제품 제조업",25,"금속 가공제품 제조업; 기계 및 가구 제외",22819.0351210507,NA,0
"(주)대양엔지니아링",NA,31114,"산업기계,선박기자재",NA,"GSN","소기업",3,40,"경상남도 김해시 어방동 0","경상남도 김해시 어방동 0",35.2978238653,128.8096070592,311,"선박 및 보트 건조업",31,"기타 운송장비 제조업",9378.53397338971,NA,0
"(주)대양정밀","김해진영주호일반산업단지",25924,"Piston",NA,"GSN","소기업",3,31,"경상남도 김해시 진영읍 본산로 153-33","경상남도 김해시 진영읍 본산리 1710-1",35.2468843959,128.6235160658,259,"기타 금속 가공제품 제조업",25,"금속 가공제품 제조업; 기계 및 가구 제외",19314.4238493568,NA,0
"(주)대양케미칼",NA,20421,"화학약품","원유","GSN","소기업",3,2,"경상남도 김해시 진영읍 본산로212번길 1","경상남도 김해시 진영읍 본산리 305-1",35.3247321378,128.7738532728,204,"기타 화학제품 제조업",20,"화학 물질 및 화학제품 제조업; 의약품 제외",13245.7784941384,NA,0
"(주)대연",NA,33302,"퍼걸러,벤치,목교등",NA,"GSN","소기업",3,3,"경상남도 김해시 주촌면 서부로 1443","경상남도 김해시 주촌면 내삼리 842-4",35.3056724958,128.8758550044,333,"운동 및 경기용구 제조업",33,"기타 제품 제조업",10780.9059960628,NA,0
"(주)대연공업",NA,25924,"기계부품","SHAFT(샤프트)","GSN","소기업",3,15,"경상남도 김해시 분성로569번길 41 (어방동)","경상남도 김해시 어방동 1047-12",35.3015132366,128.9021880938,259,"기타 금속 가공제품 제조업",25,"금속 가공제품 제조업; 기계 및 가구 제외",11488.3959014678,NA,0
"(주)대영",NA,22299,"건조대","수지","GSN","소기업",3,13,"경상남도 김해시 주촌면 서부로1293번길 17-21","경상남도 김해시 주촌면 양동리 430-1",34.8740373666,128.6525645917,222,"플라스틱 제품 제조업",22,"고무 및 플라스틱제품 제조업",41259.1066474845,NA,0
"(주)대영인더스트리",NA,25923,"도아트리우",NA,"GSN","소기업",3,9,"경상남도 김해시 진례면 고모로442번길 71-1","경상남도 김해시 진례면 고모리 990-4",35.2411544782,128.6313905697,259,"기타 금속 가공제품 제조업",25,"금속 가공제품 제조업; 기계 및 가구 제외",18501.5571876207,NA,0
"(주)대영전장시스템",NA,28111,"하네스류",NA,"GSN","소기업",3,15,"경상남도 김해시 생림면 나전로 248","경상남도 김해시 생림면 나전리 710-4",35.206723288,128.6388965201,281,"전동기, 발전기 및 전기 변환ㆍ공급ㆍ제어 장치 제조업",28,"전기장비 제조업",17624.9914608888,NA,0
"(주)대영화성",NA,22299,"운송장비 조립용 프라스틱","운송장비 조립용 프라스틱","GSN","소기업",3,17,"경상남도 김해시 한림면 김해대로1559번길 21","경상남도 김해시 한림면 신천리 196-1",35.2414237772,128.6260668272,222,"플라스틱 제품 제조업",22,"고무 및 플라스틱제품 제조업",18985.0062669828,NA,0
"(주)대영화학",NA,22251,"냉장고부품","A.B.S","GSN","소기업",3,60,"경상남도 김해시 진례면 고모로364번길 30","경상남도 김해시 진례면 담안리 531",35.3894413266,128.4578678615,222,"플라스틱 제품 제조업",22,"고무 및 플라스틱제품 제조업",39141.8061113963,NA,0
"(주)대왕김해공장",NA,23322,"레미콘","시멘트,모래,자갈","GSN","소기업",3,23,"경상남도 김해시 상동면 상동로 818-5","경상남도 김해시 상동면 매리 764-10",35.2428532125,128.6168058953,233,"시멘트, 석회, 플라스터 및 그 제품 제조업",23,"비금속 광물제품 제조업",19842.2350883676,NA,0
"(주)대우에스티아이",NA,30399,"조선기자재","수지류","GSN","소기업",3,30,"경상남도 김해시 진영읍 서부로 264","경상남도 김해시 진영읍 죽곡리 582-1",35.4316410553,129.1922599695,303,"자동차 신품 부품 제조업",30,"자동차 및 트레일러 제조업",40593.8411409937,NA,0
"(주)대운산업",NA,22199,"산업기계",NA,"GSN","소기업",3,5,"경상남도 김해시 진례면 고모로364번길 59-36","경상남도 김해시 진례면 담안리 470",35.3853564212,129.0205151502,221,"고무제품 제조업",22,"고무 및 플라스틱제품 제조업",25479.6661135928,NA,0
"(주)대운전기","김해오척일반산업단지",28123,"배전반외",NA,"GSN","소기업",3,43,"경상남도 김해시 진영읍 하계로240번길 209-31","경상남도 김해시 진영읍 하계리 779-1",35.6235807838,127.8313060491,281,"전동기, 발전기 및 전기 변환ㆍ공급ㆍ제어 장치 제조업",28,"전기장비 제조업",101557.772655414,NA,0
"(주)대웅씨티",NA,25122,"설치용 금속탱크 및 저장용기",NA,"GSN","소기업",3,41,"경상남도 김해시 한림면 용덕로23번길 109-12","경상남도 김해시 한림면 용덕리 715-1",35.5789257003,128.1800362165,251,"구조용 금속제품, 탱크 및 증기발생기 제조업",25,"금속 가공제품 제조업; 기계 및 가구 제외",71672.9118925543,NA,0
"(주)대웅엠엔에프",NA,10129,"축산물","원료육","GSN","소기업",3,32,"경상남도 김해시 분성로627번길 53 (삼방동)","경상남도 김해시 삼방동 104-10",35.395290464,129.0074844091,101,"도축, 육류 가공 및 저장 처리업",10,"식료품 제조업",25549.4860608176,NA,0
"(주)대웅피엠티",NA,24199,"금속절단가공","스텐","GSN","소기업",3,17,"경상남도 김해시 한림면 김해대로927번길 33-1","경상남도 김해시 한림면 퇴래리 1263-6",35.1195243864,128.106241265,241,"1차 철강 제조업",24,"1차 금속 제조업",66983.0676453791,NA,0
"(주)대원수출포장",NA,16232,"나무상자",NA,"GSN","소기업",3,35,"경상남도 김해시 한림면 명동로4번길 46","경상남도 김해시 한림면 명동리 503",35.3482858004,128.8524566612,162,"나무제품 제조업",16,"목재 및 나무제품 제조업; 가구 제외",14864.2989643423,NA,0
"(주)대원열처리",NA,25921,"열처리된 단조품",NA,"GSN","소기업",3,12,"경상남도 김해시 생림면 생림대로928번길 103","경상남도 김해시 생림면 봉림리 87-1",35.2063277626,128.6454053491,259,"기타 금속 가공제품 제조업",25,"금속 가공제품 제조업; 기계 및 가구 제외",17035.8069418649,NA,0
"(주)대원이엔지",NA,31114,"선박부품",NA,"GSN","소기업",3,5,"경상남도 김해시 한림면 가동로 69-18","경상남도 김해시 한림면 가산리 549-4",35.5154167656,127.7799206586,311,"선박 및 보트 건조업",31,"기타 운송장비 제조업",101258.600935032,NA,0
"(주)대원플라텍",NA,22241,"플라스틱사출품",NA,"GSN","소기업",3,8,"경상남도 김해시 주촌면 서부로1541번길 47-8","경상남도 김해시 주촌면 내삼리 593",34.969622033,128.3907689387,222,"플라스틱 제품 제조업",22,"고무 및 플라스틱제품 제조업",48612.9983086213,NA,0
"(주)대유",NA,32091,"선박가구","철판","GSN","소기업",3,24,"경상남도 김해시 진례면 담안로 166","경상남도 김해시 진례면 송현리 387-2",35.3151216128,128.5199396357,320,"가구 제조업",32,"가구 제조업",30491.9155239901,NA,0
"(주)대유",NA,24212,"선박부품 외",NA,"GSN","소기업",3,1,"경상남도 김해시 생림면 인제로611번길 7-16","경상남도 김해시 생림면 나전리 87-10",34.899302764,128.3554491302,242,"1차 비철금속 제조업",24,"1차 금속 제조업",55862.930691689,NA,0
"(주)대일",NA,25913,"금속압형제품","금속","GSN","소기업",3,39,"경상남도 김해시 진례면 고모로 472","경상남도 김해시 진례면 고모리 1100-1",35.4675647749,128.6442555144,259,"기타 금속 가공제품 제조업",25,"금속 가공제품 제조업; 기계 및 가구 제외",32785.7844986824,NA,0
"(주)대일아쿠아",NA,29176,"냉각판","파이프","GSN","소기업",3,30,"경상남도 김해시 상동면 묵방로120번길 10-33 ((주)대일아쿠아)","경상남도 김해시 상동면 묵방리 504",35.3155074379,128.514984738,291,"일반 목적용 기계 제조업",29,"기타 기계 및 장비 제조업",30927.7369432042,NA,0
"(주)대일엔지니어링",NA,29199,"식품산업기계","스텐","GSN","소기업",3,11,"경상남도 김해시 삼안로 11-28 (안동)","경상남도 김해시 안동 256-38",35.5294289519,128.7288613868,291,"일반 목적용 기계 제조업",29,"기타 기계 및 장비 제조업",36089.6171756674,NA,0
"(주)대일엔지니어링",NA,29199,"라면식품기계",NA,"GSN","소기업",3,10,"경상남도 김해시 분성로 644 (안동)","경상남도 김해시 안동 160-56",35.0817940379,128.1072906691,291,"일반 목적용 기계 제조업",29,"기타 기계 및 장비 제조업",67695.0908356396,NA,0
"(주)대일우드텍",NA,32021,"가구",NA,"GSN","소기업",3,30,"경상남도 김해시 생림면 인제로 707-19","경상남도 김해시 생림면 나전리 1208-4",35.3009095589,128.9122069834,320,"가구 제조업",32,"가구 제조업",11964.7624278368,NA,0
"(주)대정",NA,13229,"토목섬유","폴리에스테르","GSN","소기업",3,32,"경상남도 김해시 생림면 여차로 12","경상남도 김해시 생림면 사촌리 64",35.4309388418,128.8325490913,132,"직물 직조 및 직물제품 제조업",13,"섬유제품 제조업; 의복 제외",23919.5798471356,NA,0
"(주)대정",NA,13921,"끈.로프",NA,"GSN","소기업",3,10,"경상남도 김해시 진례면 서부로 444","경상남도 김해시 진례면 청천리 319-1",35.4409307743,128.5477654791,139,"기타 섬유제품 제조업",13,"섬유제품 제조업; 의복 제외",35987.8081537307,NA,0
"(주)대정금속",NA,30399,"자동차부품,볼트,너트","철판","GSN","소기업",3,30,"경상남도 김해시 상동면 상동로375번길 26-62","경상남도 김해시 상동면 우계리 30-7",35.2153298848,128.8327273862,303,"자동차 신품 부품 제조업",30,"자동차 및 트레일러 제조업",49.9073877274341,NA,0
"(주)대정축산기업",NA,10129,"소육가공품",NA,"GSN","소기업",3,15,"경상남도 김해시 주촌면 서부로1403번길 23-100","경상남도 김해시 주촌면 내삼리 1282",35.2345821619,128.9189992548,101,"도축, 육류 가공 및 저장 처리업",10,"식료품 제조업",8186.99444669401,NA,0
"(주)대진FORMER",NA,25941,"스리브류","철선","GSN","소기업",3,5,"경상남도 김해시 진례면 송현로52번길 49","경상남도 김해시 진례면 초전리 1148-34",35.2153298848,128.8327273862,259,"기타 금속 가공제품 제조업",25,"금속 가공제품 제조업; 기계 및 가구 제외",49.9073877274341,NA,0
"(주)대진건구",NA,16221,"창호","목제","GSN","소기업",3,14,"경상남도 김해시 진례면 고모로526번길 26-29","경상남도 김해시 진례면 고모리 1060-1",35.3161165737,128.902357485,162,"나무제품 제조업",16,"목재 및 나무제품 제조업; 가구 제외",12875.4007540015,NA,0
"(주)대진경금속","김해내삼농공단지",24212,"알루미늄합금제품","알루미늄","GSN","소기업",3,15,"경상남도 김해시 주촌면 서부로1499번길 113-5","경상남도 김해시 주촌면 내삼리 1077-3",35.5809613015,128.1796605404,242,"1차 비철금속 제조업",24,"1차 금속 제조업",71827.8130090069,NA,0
"(주)대진메탈공업",NA,24312,"강주물",NA,"GSN","중기업",2,53,"경상남도 김해시 주촌면 서부로 1496 (총 12 필지) 외 11필지","경상남도 김해시 주촌면 내삼리 1341-4",35.4943827012,128.5112307854,243,"금속 주조업",24,"1차 금속 제조업",42537.2964520309,NA,0
"(주)대진메탈공업",NA,25999,"기계부품",NA,"GSN","소기업",3,10,"경상남도 김해시 주촌면 서부로 1492","경상남도 김해시 주촌면 내삼리 730",35.1426253355,128.4774882169,259,"기타 금속 가공제품 제조업",25,"금속 가공제품 제조업; 기계 및 가구 제외",33300.4701372466,NA,0
"(주)대진에이치에스",NA,29120,"유압밸브",NA,"GSN","소기업",3,32,"경상남도 김해시 상동면 동북로437번길 138-38","경상남도 김해시 상동면 매리 607-29",35.3744406689,129.1465348771,291,"일반 목적용 기계 제조업",29,"기타 기계 및 장비 제조업",33602.9223247151,NA,0
"(주)대진인터스트리",NA,25929,"금속부품",NA,"GSN","소기업",3,7,"경상남도 김해시 유하로59번길 28 (유하동)","경상남도 김해시 유하동 767",35.3622575903,128.5201476914,259,"기타 금속 가공제품 제조업",25,"금속 가공제품 제조업; 기계 및 가구 제외",32731.4051219629,NA,0
"(주)대진정밀",NA,25999,"구조제","철재","GSN","소기업",3,17,"경상남도 김해시 진례면 고모로216번길 75-2","경상남도 김해시 진례면 송현리 960",35.2774973386,128.8530580705,259,"기타 금속 가공제품 제조업",25,"금속 가공제품 제조업; 기계 및 가구 제외",7152.70307368995,NA,0
"(주)대진정밀",NA,30399,"자동차부품","철재","GSN","소기업",3,7,"경상남도 김해시 진례면 고모로216번길 159-16","경상남도 김해시 진례면 송현리 961",35.2219461579,128.8269420629,303,"자동차 신품 부품 제조업",30,"자동차 및 트레일러 제조업",874.062552607231,NA,0
"(주)대진테크",NA,28302,"케이블","케일블선","GSN","소기업",3,10,"경상남도 김해시 장유로115번길 50-7 (부곡동)","경상남도 김해시 부곡동 226-3",35.2955412558,128.4994394558,283,"절연선 및 케이블 제조업",28,"전기장비 제조업",31560.671359993,NA,0
"(주)대진티엠에스",NA,31114,"선박부품","SUS","GSN","소기업",3,20,"경상남도 김해시 한림면 안하로 238","경상남도 김해시 한림면 안하리 152-14",35.2160072809,128.5987285083,311,"선박 및 보트 건조업",31,"기타 운송장비 제조업",21255.3662115494,NA,0
"(주)대천금속",NA,25929,"주석판",NA,"GSN","소기업",3,2,"경상남도 김해시 상동면 동북로473번길 208-18","경상남도 김해시 상동면 매리 936-3",35.2294679132,128.8151193659,259,"기타 금속 가공제품 제조업",25,"금속 가공제품 제조업; 기계 및 가구 제외",2206.33425740095,NA,0
"(주)대하냉기",NA,29171,"대형냉장고용냉동기계유니트,공기조화기용냉동기계유니트,저온건조기및고온건조기,배전산및분전반,자동제어",NA,"GSN","소기업",3,5,"경상남도 김해시 상동면 동북로 1043","경상남도 김해시 상동면 감노리 261-1",35.247695859,128.786847249,291,"일반 목적용 기계 제조업",29,"기타 기계 및 장비 제조업",5469.2050330167,NA,0
"(주)대한기계산업",NA,29174,"집진기",NA,"GSN","소기업",3,5,"경상남도 김해시 진례면 고모로 636-20","경상남도 김해시 진례면 고모리 53-1",35.2167879813,128.5961774533,291,"일반 목적용 기계 제조업",29,"기타 기계 및 장비 제조업",21488.0016774602,NA,0
"(주)대한로프",NA,13921,"끈,로프","끈","GSN","소기업",3,16,"경상남도 김해시 생림면 마사로 36-31","경상남도 김해시 생림면 생철리 194",35.298020356,128.5328215956,139,"기타 섬유제품 제조업",13,"섬유제품 제조업; 의복 제외",28744.9925213843,NA,0
"(주)대한아이테크","김해테크노밸리일반산업단지",25999,"보온자재",NA,"GSN","소기업",3,19,"경상남도 김해시 진례면 테크노밸리로 175","경상남도 김해시 진례면 고모리 1564-5",35.2326091009,128.8125296657,259,"기타 금속 가공제품 제조업",25,"금속 가공제품 제조업; 기계 및 가구 제외",2620.9566919673,NA,0
"(주)대한웰딩산업",NA,29199,"용접기",NA,"GSN","소기업",3,1,"경상남도 김해시 진영읍 본산2로 37-9","경상남도 김해시 진영읍 본산리 318-6",34.893780557,128.371530039,291,"일반 목적용 기계 제조업",29,"기타 기계 및 장비 제조업",55124.2078787705,NA,0
"(주)대한전기전자제작소",NA,22193,"산업기계","철판등","GSN","소기업",3,30,"경상남도 김해시 안동 262-6","경상남도 김해시 안동 262-6",35.3758985579,129.0207649205,221,"고무제품 제조업",22,"고무 및 플라스틱제품 제조업",24729.3789230036,NA,0
"(주)대한정유",NA,19221,"윤활유",NA,"GSN","소기업",3,5,"경상남도 김해시 주촌면 서부로1499번길 22-102","경상남도 김해시 주촌면 내삼리 552",35.465992303,128.7331148386,192,"석유 정제품 제조업",19,"코크스, 연탄 및 석유정제품 제조업",29230.591888284,NA,0
"(주)대한철강",NA,31114,"선박구성품",NA,"GSN","소기업",3,5,"경상남도 김해시 생림면 생림대로939번길 2-39","경상남도 김해시 생림면 봉림리 962-1",35.2795070247,128.5162727712,311,"선박 및 보트 건조업",31,"기타 운송장비 제조업",29619.6054631897,NA,0
"(주)대한포장",NA,22232,"플라스틱용기",NA,"GSN","소기업",3,7,"경상남도 김해시 진영읍 본산로269번길 39","경상남도 김해시 진영읍 본산리 309-3",35.2998613327,128.9107126132,222,"플라스틱 제품 제조업",22,"고무 및 플라스틱제품 제조업",11789.8043684918,NA,0
"(주)대현상공",NA,25914,"창호부품","창호부품","GSN","소기업",3,45,"경상남도 김해시 분성로 706 (지내동, (주)대현상공)","경상남도 김해시 지내동 273-7",35.2411544782,128.6313905697,259,"기타 금속 가공제품 제조업",25,"금속 가공제품 제조업; 기계 및 가구 제외",18501.5571876207,NA,0
"(주)대협테크",NA,31114,"선박부품","금속","GSN","소기업",3,15,"경상남도 김해시 진례면 고모로146번길 74","경상남도 김해시 진례면 송현리 1173-2",35.2475767299,128.8295969331,311,"선박 및 보트 건조업",31,"기타 운송장비 제조업",3583.83562887709,NA,0
"(주)대화기술",NA,31114,"선박의장품","철판","GSN","소기업",3,32,"경상남도 김해시 생림면 생림대로669번길 45","경상남도 김해시 생림면 봉림리 270",35.2256742808,128.6783970909,311,"선박 및 보트 건조업",31,"기타 운송장비 제조업",14047.5832173891,NA,0
"(주)대화기술",NA,31114,"선박구성부분품","선박구성부분품","GSN","소기업",3,8,"경상남도 김해시 생림면 생림대로669번길 46","경상남도 김해시 생림면 봉림리 266",35.2952793275,128.5482100404,311,"선박 및 보트 건조업",31,"기타 운송장비 제조업",27321.6553984618,NA,0
"(주)대흥알앤티",NA,22192,"자동차부품","철재","GSN","대기업",0,689,"경상남도 김해시 진례면 서부로436번길 70-25 외 63필지","경상남도 김해시 진례면 청천리 600",35.205624298,128.6637527703,221,"고무제품 제조업",22,"고무 및 플라스틱제품 제조업",15373.7504030825,NA,0
"(주)대흥엔지니어링",NA,29223,"자동화기계외","철판","GSN","소기업",3,10,"경상남도 김해시 진영읍 본산로 43","경상남도 김해시 진영읍 여래리 609-2",35.3283911439,128.5204190909,292,"특수 목적용 기계 제조업",29,"기타 기계 및 장비 제조업",31014.6793616272,NA,0
"(주)더머신","김해GoldenRoot일반산업단지",29292,"플라스틱 사출 성형 기계",NA,"GSN","소기업",3,11,"경상남도 김해시 주촌면 골든루트로66번길 47, N-3","경상남도 김해시 주촌면 농소리 628-3",35.2246964071,128.5983269625,292,"특수 목적용 기계 제조업",29,"기타 기계 및 장비 제조업",21315.9356460858,NA,0
"(주)더스틸",NA,24199,"강판절단",NA,"GSN","소기업",3,7,"경상남도 김해시 한림면 한림로 105-1","경상남도 김해시 한림면 명동리 325",34.9326400416,128.3468877659,241,"1차 철강 제조업",24,"1차 금속 제조업",54247.0633126773,NA,0
"(주)더원텍",NA,29229,"산업기계 및 공작기계 부품외",NA,"GSN","소기업",3,24,"경상남도 김해시 진영읍 하계로138번길 106","경상남도 김해시 진영읍 하계리 475",34.9616112127,128.3933010518,292,"특수 목적용 기계 제조업",29,"기타 기계 및 장비 제조업",48929.4474578473,NA,0
"(주)더위네이브",NA,31120,"해양레저선박",NA,"GSN","소기업",3,5,"경상남도 김해시 한림면 장방로 207","경상남도 김해시 한림면 가동리 484-6",35.465620982,128.7358006939,311,"선박 및 보트 건조업",31,"기타 운송장비 제조업",29117.0062848686,NA,0
"(주)덕고",NA,25999,"기계부품,금형제품","철판","GSN","소기업",3,12,"경상남도 김해시 주촌면 서부로1499번안길 8","경상남도 김해시 주촌면 내삼리 947-1",35.5335786108,128.4993317417,259,"기타 금속 가공제품 제조업",25,"금속 가공제품 제조업; 기계 및 가구 제외",46491.1192199744,NA,0
"(주)덕산금속",NA,24199,"기계제작","철물","GSN","소기업",3,38,"경상남도 김해시 한림면 김해대로1538번길 22-43","경상남도 김해시 한림면 신천리 330-12",35.1925142219,128.6902627321,241,"1차 철강 제조업",24,"1차 금속 제조업",13168.9538098791,NA,0
"(주)덕산워터텍",NA,29131,"모노펌프,탈취기","철재.파이프.주물","GSN","소기업",3,10,"경상남도 김해시 김해대로 2600 (안동)","경상남도 김해시 안동 538-2",35.2306258264,128.9168375949,291,"일반 목적용 기계 제조업",29,"기타 기계 및 장비 제조업",7891.54971118439,NA,0
"(주)덕산이엔지","김해하계농공단지",29299,"산업기계",NA,"GSN","소기업",3,10,"경상남도 김해시 진영읍 하계로240번길 103","경상남도 김해시 진영읍 하계리 753-6",35.2973832802,128.5869296231,292,"특수 목적용 기계 제조업",29,"기타 기계 및 장비 제조업",24102.9857967513,NA,0
"(주)덕신큐앤텍","김해테크노밸리일반산업단지",30399,"스폰지,우레탄","고무,우레탄","GSN","소기업",3,1,"경상남도 김해시 진례면 테크노밸리길 187-40","경상남도 김해시 진례면 고모리 1582-5",35.3091783847,128.8248345603,303,"자동차 신품 부품 제조업",30,"자동차 및 트레일러 제조업",10431.9864377529,NA,0
"(주)덕양식품",NA,10742,"조미료",NA,"GSN","소기업",3,10,"경상남도 김해시 진례면 평지길 7","경상남도 김해시 진례면 초전리 818-4",35.3693650559,129.0239379375,107,"기타 식품 제조업",10,"식료품 제조업",24418.2821606928,NA,0
"(주)덕영샌딩",NA,25923,"도장처리제품",NA,"GSN","소기업",3,9,"경상남도 김해시 한림면 가동로 77","경상남도 김해시 한림면 가산리 533-8",35.164881848,128.1272792811,259,"기타 금속 가공제품 제조업",25,"금속 가공제품 제조업; 기계 및 가구 제외",64443.3605238017,NA,0
"(주)덕원테크",NA,31114,"선박부품",NA,"GSN","소기업",3,7,"경상남도 김해시 한림면 김해대로1288번길 54","경상남도 김해시 한림면 명동리 842-1",35.2391313573,128.6341461357,311,"선박 및 보트 건조업",31,"기타 운송장비 제조업",18220.1295530255,NA,0
"(주)데카스",NA,24212,"선박부품외",NA,"GSN","소기업",3,2,"경상남도 김해시 생림면 인제로611번길 7-16","경상남도 김해시 생림면 나전리 87-10",35.2962205149,128.8704036736,242,"1차 비철금속 제조업",24,"1차 금속 제조업",9623.59392184192,NA,0
"(주)데크맨","김해GoldenRoot일반산업단지",25929,"금속류 가공","봉재 등","GSN","소기업",3,5,"경상남도 김해시 주촌면 농소리 622-9","경상남도 김해시 주촌면 농소리 622-9",35.1051264219,128.7396595594,259,"기타 금속 가공제품 제조업",25,"금속 가공제품 제조업; 기계 및 가구 제외",14851.8237405862,NA,0
"(주)덴코",NA,29176,"증류기","철판","GSN","소기업",3,13,"경상남도 김해시 진례면 고모리 270-외3","경상남도 김해시 진례면 고모리 270-외3",35.3170636492,128.7605614867,291,"일반 목적용 기계 제조업",29,"기타 기계 및 장비 제조업",13031.754081968,NA,0
"(주)도경",NA,29222,"신선기",NA,"GSN","소기업",3,10,"경상남도 김해시 진례면 고모로 592","경상남도 김해시 진례면 고모리 138",35.4114804933,129.0752931467,292,"특수 목적용 기계 제조업",29,"기타 기계 및 장비 제조업",31021.111667392,NA,0
"(주)도고산업",NA,31114,"선박 구성부분품",NA,"GSN","소기업",3,13,"경상남도 김해시 한림면 김해대로1031번안길 13","경상남도 김해시 한림면 퇴래리 789-1",35.2074316382,128.6433315406,311,"선박 및 보트 건조업",31,"기타 운송장비 제조업",17217.5179319631,NA,0
"(주)도남알루메탈",NA,24222,"알루미늄봉재외",NA,"GSN","소기업",3,5,"경상남도 김해시 한림면 안하로116번길 22-16","경상남도 김해시 한림면 안하리 271-1",35.2373679369,128.5416764279,242,"1차 비철금속 제조업",24,"1차 금속 제조업",26558.8899510347,NA,0
"(주)도담바이오",NA,21300,"의료용품",NA,"GSN","소기업",3,10,"경상남도 김해시 주촌면 골든루트로 80-59, 나동 4층 405호,407호","경상남도 김해시 주촌면 농소리 158-1",35.1146097966,128.7557037483,213,"의료용품 및 기타 의약 관련제품 제조업",21,"의료용 물질 및 의약품 제조업",13169.6827345022,NA,0
"(주)도시로",NA,25111,"샤시,창틀,간판,잡철물제작",NA,"GSN","소기업",3,4,"경상남도 김해시 유하로59번길 45 (유하동)","경상남도 김해시 유하동 815",35.1740836122,128.4603124844,251,"구조용 금속제품, 탱크 및 증기발생기 제조업",25,"금속 가공제품 제조업; 기계 및 가구 제외",34174.384550121,NA,0
"(주)도시로",NA,25112,"금속구조물, 창호물, 간판, 옥외광고물 등",NA,"GSN","소기업",3,4,"경상남도 김해시 한림면 용덕로 278","경상남도 김해시 한림면 안하리 644",35.1549437638,128.4742840344,251,"구조용 금속제품, 탱크 및 증기발생기 제조업",25,"금속 가공제품 제조업; 기계 및 가구 제외",33279.4560438441,NA,0
"(주)도원",NA,25122,"초고압탱금제조외",NA,"GSN","소기업",3,4,"경상남도 김해시 주촌면 서부로1409번길 96-15","경상남도 김해시 주촌면 내삼리 908-1",35.3262997194,128.775973212,251,"구조용 금속제품, 탱크 및 증기발생기 제조업",25,"금속 가공제품 제조업; 기계 및 가구 제외",13330.10540491,NA,0
"(주)도원메탈",NA,24321,"알루미늄합금",NA,"GSN","소기업",3,10,"경상남도 김해시 주촌면 서부로1541번안길 40","경상남도 김해시 주촌면 내삼리 1010",35.304374882,128.7977667828,243,"금속 주조업",24,"1차 금속 제조업",10362.1328729921,NA,0
"(주)돈흥원",NA,10711,"떡류",NA,"GSN","소기업",3,5,"경상남도 김해시 진영읍 본산2로79번길 24-15","경상남도 김해시 진영읍 본산리 312-16",35.577938308,128.1799164893,107,"기타 식품 제조업",10,"식료품 제조업",71620.609571049,NA,0
"(주)동경케미칼",NA,13992,"부직포","폴리에스텔","GSN","소기업",3,7,"경상남도 김해시 한림면 안곡로 559-1","경상남도 김해시 한림면 657-1",34.8759724793,128.3861736176,139,"기타 섬유제품 제조업",13,"섬유제품 제조업; 의복 제외",55438.2881665886,NA,0
"(주)동광",NA,25112,"산업플랜트",NA,"GSN","소기업",3,5,"경상남도 김해시 진례면 서부로 397-2","경상남도 김해시 진례면 청천리 8",35.2177431379,128.8014041613,251,"구조용 금속제품, 탱크 및 증기발생기 제조업",25,"금속 가공제품 제조업; 기계 및 가구 제외",2814.62210639936,NA,0
"(주)동광에너지",NA,25113,"농업용기계",NA,"GSN","소기업",3,2,"경상남도 김해시 한림면 김해대로916번길 40-45","경상남도 김해시 한림면 병동리 1090-3",35.320105634,128.540745881,251,"구조용 금속제품, 탱크 및 증기발생기 제조업",25,"금속 가공제품 제조업; 기계 및 가구 제외",28952.8628088375,NA,0
"(주)동국알앤에스",NA,23211,"내화요업","마그네사이트","GSN","소기업",3,30,"경상남도 김해시 상동면 상동로375번길 26-29","경상남도 김해시 상동면 우계리 411-1",35.3611047425,128.0982255864,232,"내화, 비내화 요업제품 제조업",23,"비금속 광물제품 제조업",68695.9192613948,NA,0
"(주)동남",NA,23322,"레미콘,아스콘,쇄석골재","시멘트,모래,AP","GSN","중기업",2,50,"경상남도 김해시 주촌면 서부로1701번안길 58-93","경상남도 김해시 주촌면 선지리 125-2",35.2558408297,128.7785956174,233,"시멘트, 석회, 플라스터 및 그 제품 제조업",23,"비금속 광물제품 제조업",6631.51429295961,NA,0
"(주)동남엘리베이터",NA,29162,"승강기 및 주차설비",NA,"GSN","소기업",3,20,"경상남도 김해시 생림면 생림대로928번길 54-19","경상남도 김해시 생림면 봉림리 88-2",35.303139356,128.7965963698,291,"일반 목적용 기계 제조업",29,"기타 기계 및 장비 제조업",10264.6554769384,NA,0
"(주)동남정유 1공장",NA,19210,"정제연료유","폐유(액상)","GSN","소기업",3,8,"경상남도 김해시 김해대로2579번길 36 (안동)","경상남도 김해시 안동 426-1",35.0542410959,128.072542513,192,"석유 정제품 제조업",19,"코크스, 연탄 및 석유정제품 제조업",71501.6347948382,NA,0
"(주)동남정유2공장",NA,19210,"정제연료유","폐유(액상)","GSN","소기업",3,7,"경상남도 김해시 김해대로2553번길 30 (어방동)","경상남도 김해시 어방동 1065-4",35.3246418629,128.7187410615,192,"석유 정제품 제조업",19,"코크스, 연탄 및 석유정제품 제조업",15924.0825064413,NA,0
"(주)동두산업",NA,29176,"열교환기 및 산업기계",NA,"GSN","소기업",3,7,"경상남도 김해시 한림면 김해대로 1160-11","경상남도 김해시 한림면 명동리 1051",35.2363496959,128.5057109498,291,"일반 목적용 기계 제조업",29,"기타 기계 및 장비 제조업",29811.8175054428,"동두산업",12
"(주)동림열처리",NA,25921,"금속열처리","금속","GSN","소기업",3,6,"경상남도 김해시 주촌면 서부로1499번길 154-19","경상남도 김해시 주촌면 양동리 148-1",35.2411544782,128.6313905697,259,"기타 금속 가공제품 제조업",25,"금속 가공제품 제조업; 기계 및 가구 제외",18501.5571876207,NA,0
"(주)동림철강",NA,24199,"철판,절단","철판","GSN","소기업",3,17,"경상남도 김해시 진례면 고모로 93-22","경상남도 김해시 진례면 산본리 25",35.3123028944,128.3332631491,241,"1차 철강 제조업",24,"1차 금속 제조업",46655.4933251514,NA,0
"(주)동림포리마",NA,17124,"가공지제조","크라프트","GSN","소기업",3,5,"경상남도 김해시 한림면 김해대로 1224-18 (총 2 필지)","경상남도 김해시 한림면 명동리 162",35.2126022255,128.5992278228,171,"펄프, 종이 및 판지 제조업",17,"펄프, 종이 및 종이제품 제조업",21212.4001197181,NA,0
"(주)동명금속",NA,25113,"선박용트레이",NA,"GSN","소기업",3,8,"경상남도 김해시 한림면 김해대로 1102-21","경상남도 김해시 한림면 명동리 1177",35.1211250048,128.782481353,251,"구조용 금속제품, 탱크 및 증기발생기 제조업",25,"금속 가공제품 제조업; 기계 및 가구 제외",11391.3379113292,NA,0
"(주)동문화학",NA,20499,"고무가소제","아스팔트","GSN","소기업",3,15,"경상남도 김해시 김해대로2694번길 28 (지내동)","경상남도 김해시 지내동 194-13",35.2105818346,128.6519749246,204,"기타 화학제품 제조업",20,"화학 물질 및 화학제품 제조업; 의약품 제외",16416.3098498035,NA,0
"(주)동방유화",NA,38321,"유기용제","폐기유가용제","GSN","소기업",3,7,"경상남도 김해시 주촌면 서부로1701번안길 58-218","경상남도 김해시 주촌면 선지리 30-12",35.2004987638,128.6728885327,383,"해체, 선별 및 원료 재생업",38,"폐기물 수집, 운반, 처리 및 원료 재생업",14597.7018201472,NA,0
"(주)동방포장",NA,17211,"박스","골판지","GSN","소기업",3,8,"경상남도 김해시 상동면 동북로1007번길 51","경상남도 김해시 상동면 감노리 209",35.246867409,128.6213888491,172,"골판지, 종이 상자 및 종이 용기 제조업",17,"펄프, 종이 및 종이제품 제조업",19504.5567297929,NA,0
"(주)동보기전","김해테크노밸리일반산업단지",29172,"가습기부품 외",NA,"GSN","소기업",3,9,"경상남도 김해시 진례면 테크노밸리로 171","경상남도 김해시 진례면 고모리 1564-6",35.3251721715,128.745440817,291,"일반 목적용 기계 제조업",29,"기타 기계 및 장비 제조업",14517.5572088285,NA,0
"(주)동보카본",NA,20202,"엔지니어링 플라스틱",NA,"GSN","소기업",3,7,"경상남도 김해시 진영읍 본산2로 15-41","경상남도 김해시 진영읍 본산리 319-12",35.2456753558,128.5906658192,202,"합성고무 및 플라스틱 물질 제조업",20,"화학 물질 및 화학제품 제조업; 의약품 제외",22241.3804705593,NA,0
"(주)동부정밀",NA,25924,"금속제품",NA,"GSN","소기업",3,2,"경상남도 김해시 진영읍 서부로 64","경상남도 김해시 진영읍 내룡리 71-6",35.2408218947,128.5085144707,259,"기타 금속 가공제품 제조업",25,"금속 가공제품 제조업; 기계 및 가구 제외",29599.8322356989,NA,0
"(주)동부정밀",NA,25924,"금속제품",NA,"GSN","소기업",3,3,"경상남도 김해시 진영읍 서부로 64-1","경상남도 김해시 진영읍 내룡리 69-9",35.3300174622,128.5931177795,259,"기타 금속 가공제품 제조업",25,"금속 가공제품 제조업; 기계 및 가구 제외",25198.4777409136,NA,0
"(주)동산리싸이클링",NA,38321,"도로포장용채움재","폐기물(분진)","GSN","소기업",3,6,"경상남도 김해시 주촌면 서부로1541번길 67","경상남도 김해시 주촌면 내삼리 534-3",35.205624298,128.6637527703,383,"해체, 선별 및 원료 재생업",38,"폐기물 수집, 운반, 처리 및 원료 재생업",15373.7504030825,NA,0
"(주)동산업",NA,24322,"동괴",NA,"GSN","소기업",3,5,"경상남도 김해시 한림면 김해대로927번길 204","경상남도 김해시 한림면 퇴래리 259",35.2292478513,128.8106913117,243,"금속 주조업",24,"1차 금속 제조업",2491.33991950142,NA,0
"(주)동산전자","김해GoldenRoot일반산업단지",28519,"파워코드조립, 태양광",NA,"GSN","중기업",2,52,"경상남도 김해시 주촌면 골든루트로66번길 83","경상남도 김해시 주촌면 농소리 628-6",34.8705571514,128.4047896006,285,"가정용 기기 제조업",28,"전기장비 제조업",54623.7945661326,"동산전자",14
"(주)동산창호",NA,16221,"목재문","목재","GSN","소기업",3,7,"경상남도 김해시 상동면 동북로437번길 114-108","경상남도 김해시 상동면 매리 607-1",35.2532738213,128.7794189959,162,"나무제품 제조업",16,"목재 및 나무제품 제조업; 가구 제외",6385.46261236949,NA,0
"(주)동산텍스",NA,13300,"직물","원단","GSN","소기업",3,10,"경상남도 김해시 생림면 상동로 78-9","경상남도 김해시 생림면 나전리 301-3",35.6539499355,127.922603041,133,"편조 원단 제조업",13,"섬유제품 제조업; 의복 제외",95861.2969590583,NA,0
"(주)동서아이앤디",NA,31114,"선박용피팅연결구",NA,"GSN","소기업",3,8,"경상남도 김해시 한림면 김해대로1099번안길 54","경상남도 김해시 한림면 퇴래리 814",35.3166506859,128.2758094652,311,"선박 및 보트 건조업",31,"기타 운송장비 제조업",51857.6870773977,NA,0
"(주)동성기업",NA,28519,"세탁기및에어컨부품",NA,"GSN","소기업",3,10,"경상남도 김해시 진례면 고모로324번안길 92","경상남도 김해시 진례면 송현리 4-3",35.2381370236,128.6307334382,285,"가정용 기기 제조업",28,"전기장비 제조업",18512.3018025099,NA,0
"(주)동성산업",NA,25111,"금속문",NA,"GSN","소기업",3,5,"경상남도 김해시 상동면 장척로 411","경상남도 김해시 상동면 묵방리 296",35.1792658758,128.0920808521,251,"구조용 금속제품, 탱크 및 증기발생기 제조업",25,"금속 가공제품 제조업; 기계 및 가구 제외",67518.2597150416,NA,0
"(주)동성시스템","김해하계농공단지",29133,"밸브 외",NA,"GSN","소기업",3,7,"경상남도 김해시 진영읍 하계로240번길 103","경상남도 김해시 진영읍 하계리 753-6",35.2666952576,128.7741444861,291,"일반 목적용 기계 제조업",29,"기타 기계 및 장비 제조업",7769.25877687618,NA,0
"(주)동성에이피",NA,20202,"전착수지","아크릴 모노마","GSN","소기업",3,10,"경상남도 김해시 생림면 생림대로928번길 94 (총 2 필지)","경상남도 김해시 생림면 봉림리 88-1",35.2357777467,128.6708761125,202,"합성고무 및 플라스틱 물질 제조업",20,"화학 물질 및 화학제품 제조업; 의약품 제외",14858.5375406225,NA,0
"(주)동성전기","김해진영농공단지",30310,"AC MOTOR","철판류","GSN","중기업",2,88,"경상남도 김해시 진영읍 서부로123번길 18","경상남도 김해시 진영읍 죽곡리 7-4",35.2737888018,128.7672047281,303,"자동차 신품 부품 제조업",30,"자동차 및 트레일러 제조업",8775.9500928864,NA,0
"(주)동성트레이",NA,25119,"케이블트레및 닥트","철","GSN","소기업",3,13,"경상남도 김해시 상동면 동북로513번길 66","경상남도 김해시 상동면 매리 448-2",35.2703593045,128.7787739837,251,"구조용 금속제품, 탱크 및 증기발생기 제조업",25,"금속 가공제품 제조업; 기계 및 가구 제외",7802.78120806276,NA,0
"(주)동성티씨에스","김해송현일반산업단지",22241,"중장비,자동차 부품, 항공기부품 등","수지,프리프레그,PE,세라믹","GSN","대기업",0,400,"경상남도 김해시 진례면 고모로134번길 81, (주)동성티씨에스","경상남도 김해시 진례면 송현리 1177-2",35.1412944725,127.9946202811,222,"플라스틱 제품 제조업",22,"고무 및 플라스틱제품 제조업",76733.8059176541,NA,0
"(주)동성판지",NA,17211,"골판지상자","골판지원단","GSN","소기업",3,7,"경상남도 김해시 상동면 동북로473번길 71 (총 3 필지)","경상남도 김해시 상동면 매리 191-7",35.6516600763,127.92600418,172,"골판지, 종이 상자 및 종이 용기 제조업",17,"펄프, 종이 및 종이제품 제조업",95467.2753228709,NA,0
"(주)동성하이드로텍",NA,29199,"기계조립",NA,"GSN","소기업",3,10,"경상남도 김해시 주촌면 서부로 1465 (총 2 필지)","경상남도 김해시 주촌면 내삼리 826",35.2459596336,128.6948168913,291,"일반 목적용 기계 제조업",29,"기타 기계 및 장비 제조업",12957.4264119424,NA,0
"(주)동승우드",NA,16229,"목재품","합판","GSN","소기업",3,17,"경상남도 김해시 상동면 상동로 752","경상남도 김해시 상동면 매리 896",35.2954962245,128.7094189852,162,"나무제품 제조업",16,"목재 및 나무제품 제조업; 가구 제외",14278.776611011,NA,0
"(주)동신모텍","김해진영농공단지",30320,"자동차차체부품","철재","GSN","소기업",3,40,"경상남도 김해시 진영읍 서부로179번길 37","경상남도 김해시 진영읍 죽곡리 21-5",35.205624298,128.6637527703,303,"자동차 신품 부품 제조업",30,"자동차 및 트레일러 제조업",15373.7504030825,NA,0
"(주)동신모텍","김해진영농공단지",30399,"자동차부품",NA,"GSN","소기업",3,12,"경상남도 김해시 진영읍 서부로179번길 34","경상남도 김해시 진영읍 죽곡리 22-2",35.2755938849,128.8263733201,303,"자동차 신품 부품 제조업",30,"자동차 및 트레일러 제조업",6705.34613185376,NA,0
"(주)동신모텍",NA,30399,"자동차부품","철판","GSN","소기업",3,37,"경상남도 김해시 진영읍 서부로179번길 37","경상남도 김해시 진영읍 죽곡리 35-9",35.6530417442,127.9322582562,303,"자동차 신품 부품 제조업",30,"자동차 및 트레일러 제조업",95055.8709293251,NA,0
"(주)동신목재",NA,16101,"일반제재목",NA,"GSN","소기업",3,2,"경상남도 김해시 상동면 상동로 824","경상남도 김해시 상동면 매리 764-12",35.2183508136,128.5969355137,161,"제재 및 목재 가공업",16,"목재 및 나무제품 제조업; 가구 제외",21420.7779058507,NA,0
"(주)동아HI","김해테크노밸리일반산업단지",29169,"산업운반기계",NA,"GSN","소기업",3,9,"경상남도 김해시 진례면 테크노밸리1로 183","경상남도 김해시 진례면 고모리 1259-1",35.2884932439,128.8968890557,291,"일반 목적용 기계 제조업",29,"기타 기계 및 장비 제조업",10027.175176236,NA,0
"(주)동아금속",NA,24311,"선철주물","선철","GSN","소기업",3,31,"경상남도 김해시 유하로 176-39 (유하동)","경상남도 김해시 유하동 356-22",35.2958178659,128.8874415437,243,"금속 주조업",24,"1차 금속 제조업",10247.1920245336,NA,0
"(주)동아기업",NA,38321,"프라스틱재생품",NA,"GSN","소기업",3,15,"경상남도 김해시 한림면 장방로 23","경상남도 김해시 한림면 가산리 755",35.205624298,128.6637527703,383,"해체, 선별 및 원료 재생업",38,"폐기물 수집, 운반, 처리 및 원료 재생업",15373.7504030825,NA,0
"(주)동아메탈",NA,24212,"알류미늄합금","알루미늄","GSN","소기업",3,10,"경상남도 김해시 진례면 고모로134번길 40-32","경상남도 김해시 진례면 송현리 1269-1",35.3017237968,128.7945493884,242,"1차 비철금속 제조업",24,"1차 금속 제조업",10176.9112092544,NA,0
"(주)동아산기","김해내삼농공단지",25113,"금속압형제품",NA,"GSN","소기업",3,10,"경상남도 김해시 주촌면 서부로1499번길 102-18","경상남도 김해시 주촌면 내삼리 1080-3",35.164881848,128.1272792811,251,"구조용 금속제품, 탱크 및 증기발생기 제조업",25,"금속 가공제품 제조업; 기계 및 가구 제외",64443.3605238017,NA,0
"(주)동아산업기계",NA,29199,"산업기계","철","GSN","소기업",3,20,"경상남도 김해시 지내동 298-17","경상남도 김해시 지내동 298-17",35.2246964071,128.5983269625,291,"일반 목적용 기계 제조업",29,"기타 기계 및 장비 제조업",21315.9356460858,NA,0
"(주)동아씨앤티",NA,30399,"자동차부품외",NA,"GSN","소기업",3,5,"경상남도 김해시 한림면 가산로 35 (총 3 필지)","경상남도 김해시 한림면 가산리 738-1",35.2443328262,128.6171917552,303,"자동차 신품 부품 제조업",30,"자동차 및 트레일러 제조업",19833.3098762226,NA,0
"(주)동아전자오스카",NA,28519,"전기녹접기",NA,"GSN","소기업",3,20,"경상남도 김해시 김해대로2611번길 21-24 (안동)","경상남도 김해시 안동 430-2",35.23897489,128.90633637,285,"가정용 기기 제조업",28,"전기장비 제조업",7242.11183904283,NA,0
"(주)동아풍력",NA,29173,"송풍기","철근","GSN","소기업",3,24,"경상남도 김해시 유하로 45-37 (유하동)","경상남도 김해시 유하동 856-2",35.1214300529,128.7838663324,291,"일반 목적용 기계 제조업",29,"기타 기계 및 장비 제조업",11310.5945860727,NA,0
"(주)동양/건재부문김해공장",NA,23322,"레드믹스콘크리트(레미콘)","시멘트,모래,자갈","GSN","소기업",3,29,"경상남도 김해시 한림면 김해대로1538번길 41","경상남도 김해시 한림면 신천리 315",35.2622528873,128.4931261505,233,"시멘트, 석회, 플라스터 및 그 제품 제조업",23,"비금속 광물제품 제조업",31297.1006067968,NA,0
"(주)동양기공",NA,29199,"산업기계부품","철판","GSN","소기업",3,9,"경상남도 김해시 진영읍 의전리 422-1","경상남도 김해시 진영읍 의전리 422-1",35.1106227818,128.4224764074,291,"일반 목적용 기계 제조업",29,"기타 기계 및 장비 제조업",39092.9906252616,NA,0
"(주)동양산업",NA,23322,"레미콘","시멘트,모라,자갈","GSN","소기업",3,14,"경상남도 김해시 상동면 동북로437번길 58-62","경상남도 김해시 상동면 매리 479-3",35.2473048902,128.7863975933,233,"시멘트, 석회, 플라스터 및 그 제품 제조업",23,"비금속 광물제품 제조업",5471.95436403492,NA,0
"(주)동양산업",NA,23993,"비금속제품",NA,"GSN","소기업",3,17,"경상남도 김해시 상동면 상동로 312-53","경상남도 김해시 상동면 우계리 764-4",35.5047547146,128.4456041106,239,"기타 비금속 광물제품 제조업",23,"비금속 광물제품 제조업",47596.5858704611,NA,0
"(주)동양주방설비",NA,25992,"주방기기,급식기기",NA,"GSN","소기업",3,5,"경상남도 김해시 진례면 고모로327번안길 21-11","경상남도 김해시 진례면 담안리 913",35.5929814922,128.8808115601,259,"기타 금속 가공제품 제조업",25,"금속 가공제품 제조업; 기계 및 가구 제외",42130.4267319734,NA,0
"(주)동양특수강",NA,24312,"선박용주강품","철판등","GSN","소기업",3,20,"경상남도 김해시 주촌면 선지리 386-외3","경상남도 김해시 주촌면 선지리 386-외3",34.8256335811,128.3962615225,243,"금속 주조업",24,"1차 금속 제조업",58753.8416216194,NA,0
"(주)동양팩",NA,17211,"골판지,골판지상자","골판지","GSN","소기업",3,25,"경상남도 김해시 생림면 생림대로 519-126","경상남도 김해시 생림면 나전리 1176-11",35.2411544782,128.6313905697,172,"골판지, 종이 상자 및 종이 용기 제조업",17,"펄프, 종이 및 종이제품 제조업",18501.5571876207,NA,0
"(주)동우TMC","김해나전농공단지",10801,"사료첨가제","철분,아연,망간등","GSN","소기업",3,32,"경상남도 김해시 생림면 나전로249번길 13-57","경상남도 김해시 생림면 나전리 14-3",35.152900229,128.3177926211,108,"동물용 사료 및 조제식품 제조업",10,"식료품 제조업",47361.3577896252,NA,0
"(주)동우금속",NA,29133,"플렌지","철판","GSN","소기업",3,20,"경상남도 김해시 진례면 송현리 461-2","경상남도 김해시 진례면 송현리 461-2",35.1601455924,128.2850015848,291,"일반 목적용 기계 제조업",29,"기타 기계 및 장비 제조업",50211.280680835,NA,0
"(주)동우선재",NA,24123,"철강선","철재","GSN","소기업",3,10,"경상남도 김해시 상동면 동북로 501","경상남도 김해시 상동면 매리 256",35.3035305308,128.8191442509,241,"1차 철강 제조업",24,"1차 금속 제조업",9855.59042430648,NA,0
"(주)동우정밀",NA,31114,"선박부품",NA,"GSN","소기업",3,10,"경상남도 김해시 진례면 고모로 596-50","경상남도 김해시 진례면 고모리 336-2",35.2110325681,128.804335646,311,"선박 및 보트 건조업",31,"기타 운송장비 제조업",2579.92203698833,"동우기계",274
"(주)동원라벨",NA,13213,"라벨","종이","GSN","소기업",3,8,"경상남도 김해시 김해대로2635번길 57 (총 2 필지)","경상남도 김해시 안동 162-11",35.3120044767,128.8299153266,132,"직물 직조 및 직물제품 제조업",13,"섬유제품 제조업; 의복 제외",10726.0773659457,NA,0
"(주)동원장갑",NA,14419,"장갑",NA,"GSN","소기업",3,25,"경상남도 김해시 김해대로2636번길 13-35 (안동)","경상남도 김해시 안동 543-21",35.359995542,128.7403294704,144,"의복 액세서리 제조업",14,"의복, 의복 액세서리 및 모피제품 제조업",18093.316145737,NA,0
"(주)동원정공",NA,30399,"자동차부품","철판","GSN","소기업",3,12,"경상남도 김해시 상동면 상동로375번길 26-42","경상남도 김해시 상동면 우계리 30-1",35.2172459406,128.6508125715,303,"자동차 신품 부품 제조업",30,"자동차 및 트레일러 제조업",16514.3153296234,NA,0
"(주)동원플라트",NA,30399,"프라스틱자동차부품","프라스틱소재","GSN","중기업",2,57,"경상남도 김해시 진영읍 하계로 175-10","경상남도 김해시 진영읍 방동리 20-1",35.2058042386,128.6371698328,303,"자동차 신품 부품 제조업",30,"자동차 및 트레일러 제조업",17787.8572624247,NA,0
"(주)동은",NA,29294,"자동차부품금형","탄소강","GSN","소기업",3,11,"경상남도 김해시 한림면 김해대로 1405","경상남도 김해시 한림면 신천리 734-1",35.3406768195,128.0860621915,292,"특수 목적용 기계 제조업",29,"기타 기계 및 장비 제조업",69289.9110565571,NA,0
"(주)동은",NA,20129,"고무첨가제","펜타에리트리틀,아연화,스텐아린등","GSN","소기업",3,26,"경상남도 김해시 분성로541번길 28-19 (어방동)","경상남도 김해시 어방동 1061-9",35.205624298,128.6637527703,201,"기초 화학물질 제조업",20,"화학 물질 및 화학제품 제조업; 의약품 제외",15373.7504030825,NA,0
"(주)동은메탈",NA,25913,"밸브","황동봉","GSN","소기업",3,6,"경상남도 김해시 생림면 생림대로 695","경상남도 김해시 생림면 사촌리 609-11",35.3704715724,129.0474859643,259,"기타 금속 가공제품 제조업",25,"금속 가공제품 제조업; 기계 및 가구 제외",26072.4027676797,NA,0
"(주)동지디앤비",NA,16102,"목드럼",NA,"GSN","소기업",3,20,"경상남도 김해시 상동면 묵방로 72","경상남도 김해시 상동면 우계리 78",35.3676920615,129.1628036558,161,"제재 및 목재 가공업",16,"목재 및 나무제품 제조업; 가구 제외",34498.9119937391,NA,0
"(주)동진산업",NA,30399,"자동차부품","강판류,앵글","GSN","소기업",3,10,"경상남도 김해시 진영읍 의전리 270-1","경상남도 김해시 진영읍 의전리 270-1",35.3710203236,129.0506119319,303,"자동차 신품 부품 제조업",30,"자동차 및 트레일러 제조업",26326.5122041802,NA,0
"(주)동진에코필드","김해나전농공단지",13992,"식생매트",NA,"GSN","소기업",3,2,"경상남도 김해시 생림면 나전로249번길 5, (주)동진에코필드","경상남도 김해시 생림면 나전리 554-2",35.0349094982,127.7911946287,139,"기타 섬유제품 제조업",13,"섬유제품 제조업; 의복 제외",96972.7964084045,NA,0
"(주)동진엔테크",NA,32029,"자동차부품",NA,"GSN","소기업",3,19,"경상남도 김해시 상동면 상동로375번길 87-72 (총 3 필지)","경상남도 김해시 상동면 우계리 686",35.5039650712,128.7557000209,320,"가구 제조업",32,"가구 제조업",32767.4949920195,NA,0
"(주)동진캐스팅",NA,24211,"동,황동잉것및발릿",NA,"GSN","소기업",3,3,"경상남도 김해시 장유로115번길 50-17 (부곡동)","경상남도 김해시 부곡동 219-2",35.4283714432,129.1580814966,242,"1차 비철금속 제조업",24,"1차 금속 제조업",37904.7741960614,NA,0
"(주)동진켐스타",NA,20499,"금속표면처리재(세정제)","인산,가성소다","GSN","소기업",3,3,"경상남도 김해시 주촌면 망덕리 461-1","경상남도 김해시 주촌면 망덕리 461-1",35.2499437873,128.6096142799,204,"기타 화학제품 제조업",20,"화학 물질 및 화학제품 제조업; 의약품 제외",20620.3568092413,NA,0
"(주)동진테크",NA,31114,"선박구성품","철재","GSN","소기업",3,21,"경상남도 김해시 진례면 서부로 909-17","경상남도 김해시 진례면 산본리 135-7",35.205624298,128.6637527703,311,"선박 및 보트 건조업",31,"기타 운송장비 제조업",15373.7504030825,NA,0
"(주)동큐제과",NA,10712,"빵,케이크","백분류,당류","GSN","중기업",2,60,"경상남도 김해시 생림면 나전로249번길 13-57","경상남도 김해시 생림면 나전리 14-3",35.1050811638,128.4627522495,107,"기타 식품 제조업",10,"식료품 제조업",35812.4839312553,NA,0
"(주)동해인텍",NA,23999,"제재목","원목","GSN","소기업",3,10,"경상남도 김해시 상동면 상동로 105-7","경상남도 김해시 상동면 우계리 1083-3",35.298793252,128.7096250868,239,"기타 비금속 광물제품 제조업",23,"비금속 광물제품 제조업",14494.7980478373,NA,0
"(주)동해진영공장",NA,22251,"냉장고 핸들 세탁기 안전카바","PP,PE","GSN","소기업",3,40,"경상남도 김해시 진영읍 서부로378번길 61-14","경상남도 김해시 진영읍 의전리 424-2",35.2411544782,128.6313905697,222,"플라스틱 제품 제조업",22,"고무 및 플라스틱제품 제조업",18501.5571876207,NA,0
"(주)동훈산업","김해안하농공단지",31114,"선박부품",NA,"GSN","소기업",3,10,"경상남도 김해시 한림면 용덕로302번길 42","경상남도 김해시 한림면 안하리 2001-3",35.3817456992,129.0540499479,311,"선박 및 보트 건조업",31,"기타 운송장비 제조업",27351.0026161006,NA,0
"(주)동훈테크",NA,30399,"자동차부품",NA,"GSN","소기업",3,29,"경상남도 김해시 진례면 고모로364번길 65","경상남도 김해시 진례면 담안리 485-9",35.7344030309,128.1566371266,303,"자동차 신품 부품 제조업",30,"자동차 및 트레일러 제조업",84115.6399438635,NA,0
"(주)동흥엔지니어링",NA,25113,"철구조물",NA,"GSN","소기업",3,16,"경상남도 김해시 생림면 생림대로928번길 21","경상남도 김해시 생림면 봉림리 909",35.27985189,128.5151970679,251,"구조용 금속제품, 탱크 및 증기발생기 제조업",25,"금속 가공제품 제조업; 기계 및 가구 제외",29723.777616683,NA,0
"(주)두루찬",NA,10743,"청국장","콩","GSN","소기업",3,5,"경상남도 김해시 상동면 상동로 166","경상남도 김해시 상동면 우계리 1122",35.2382742866,128.4102561034,107,"기타 식품 제조업",10,"식료품 제조업",38494.1616948044,NA,0
"(주)두성",NA,31114,"선박구성품","철재","GSN","소기업",3,16,"경상남도 김해시 상동면 상동로 831-146","경상남도 김해시 상동면 매리 848-1",35.116419385,128.7971259272,311,"선박 및 보트 건조업",31,"기타 운송장비 제조업",11430.1758466551,NA,0
"(주)두성인덕션",NA,28119,"고주파열처리기","기계류","GSN","소기업",3,10,"경상남도 김해시 주촌면 서부로1637번길 195-29","경상남도 김해시 주촌면 원지리 1070",35.2463229382,128.5112410552,281,"전동기, 발전기 및 전기 변환ㆍ공급ㆍ제어 장치 제조업",28,"전기장비 제조업",29416.8313925278,NA,0
"(주)두성정공",NA,31114,"관이음쇠,기타기계","철","GSN","소기업",3,7,"경상남도 김해시 상동면 상동로 831-146","경상남도 김해시 상동면 매리 848-1",35.3538544237,128.7104742753,311,"선박 및 보트 건조업",31,"기타 운송장비 제조업",18940.2286057619,NA,0
"(주)두영",NA,25929,"철판절단","철판,금속","GSN","소기업",3,18,"경상남도 김해시 진영읍 서부로396번길 14","경상남도 김해시 진영읍 의전리 347-6",35.6100191053,127.7773494099,259,"기타 금속 가공제품 제조업",25,"금속 가공제품 제조업; 기계 및 가구 제외",105339.188774926,NA,0
"(주)두영씨앤알",NA,10401,"바이오902","유지","GSN","소기업",3,12,"경상남도 김해시 주촌면 서부로1499번길 68-43","경상남도 김해시 주촌면 내삼리 1159-4",35.2031725176,127.6365235542,104,"동물성 및 식물성 유지 제조업",10,"식료품 제조업",108878.355921525,NA,0
"(주)두영이엔지",NA,31114,"선박부품","철제","GSN","소기업",3,8,"경상남도 김해시 한림면 고모로 782-18","경상남도 김해시 한림면 병동리 989",35.0916281539,128.0571896175,311,"선박 및 보트 건조업",31,"기타 운송장비 제조업",71936.369258222,NA,0
"(주)두원",NA,24122,"자동차부품",NA,"GSN","소기업",3,5,"경상남도 김해시 주촌면 서부로1499번안길 33 (총 2 필지)","경상남도 김해시 주촌면 내삼리 1006-9",35.3133355768,128.3316499192,241,"1차 철강 제조업",24,"1차 금속 제조업",46824.5318494344,NA,0
"(주)두원식품",NA,10129,"육지동물가공","돼지고기","GSN","소기업",3,28,"경상남도 김해시 주촌면 서부로1403번길 22","경상남도 김해시 주촌면 내삼리 871-11",35.3126955731,128.8785686577,101,"도축, 육류 가공 및 저장 처리업",10,"식료품 제조업",11596.321216727,NA,0
"(주)두원하이스틸",NA,24132,"강관파이프,구조용금속제품",NA,"GSN","소기업",3,10,"경상남도 김해시 상동면 소락로 87","경상남도 김해시 상동면 묵방리 761",34.8053241057,128.386955476,241,"1차 철강 제조업",24,"1차 금속 제조업",60996.8762960506,NA,0
"(주)두이",NA,29280,"산업용로봇",NA,"GSN","소기업",3,17,"경상남도 김해시 진례면 서부로 832, 외5","경상남도 김해시 진례면 신월리 412-3",35.3663958644,129.0547328241,292,"특수 목적용 기계 제조업",29,"기타 기계 및 장비 제조업",26280.8762287111,NA,0
"(주)두이엔지니어링",NA,29280,"산업기기","스틸류","GSN","소기업",3,16,"경상남도 김해시 진례면 서부로 832","경상남도 김해시 진례면 신월리 412-3",35.2411544782,128.6313905697,292,"특수 목적용 기계 제조업",29,"기타 기계 및 장비 제조업",18501.5571876207,NA,0
"(주)두인",NA,24212,"알루미늄합급괴","알루미늄","GSN","소기업",3,8,"경상남도 김해시 생림면 나전로 87-12","경상남도 김해시 생림면 나전리 1091-14",35.3122977391,128.7543710515,242,"1차 비철금속 제조업",24,"1차 금속 제조업",12877.6247184213,NA,0
"(주)두진","김해병동농공단지",22299,"폴리우레탄 필름","열가소성폴리우레탄","GSN","소기업",3,8,"경상남도 김해시 한림면 김해대로916번길 154-23","경상남도 김해시 한림면 병동리 587-0",35.6853894857,128.030673755,222,"플라스틱 제품 제조업",22,"고무 및 플라스틱제품 제조업",89522.9075713071,NA,0
"(주)듀텍","김해테크노밸리일반산업단지",29133,"밸브",NA,"GSN","소기업",3,11,"경상남도 김해시 진례면 테크노밸리길 189","경상남도 김해시 진례면 담안리 1526-5",35.2246964071,128.5983269625,291,"일반 목적용 기계 제조업",29,"기타 기계 및 장비 제조업",21315.9356460858,NA,0
"(주)드림월드","김해덕암일반산업단지",22231,"그라비아 인쇄봉투",".","GSN","소기업",3,5,"경상남도 김해시 주촌면 서부로1637번길 375","경상남도 김해시 주촌면 덕암리 829-1",35.2534550649,128.8252390077,222,"플라스틱 제품 제조업",22,"고무 및 플라스틱제품 제조업",4275.22721860661,NA,0
"(주)드림인더스",NA,33910,"간판외","간판외","GSN","소기업",3,5,"경상남도 김해시 분성로569번길 28-20 (어방동)","경상남도 김해시 어방동 1049-18",35.0902047853,127.7211630533,339,"그 외 기타 제품 제조업",33,"기타 제품 제조업",102180.768566126,NA,0
"(주)디네스",NA,31114,"선박부품",NA,"GSN","소기업",3,5,"경상남도 김해시 주촌면 서부로1637번길 103","경상남도 김해시 주촌면 원지리 1192-6",34.8837239346,128.3682017798,311,"선박 및 보트 건조업",31,"기타 운송장비 제조업",56083.4676246297,NA,0
"(주)디딤이엔지",NA,25913,"쟈키베이스",NA,"GSN","소기업",3,4,"경상남도 김해시 진례면 고모로 347","경상남도 김해시 진례면 담안리 967",35.1607664241,128.0711897603,259,"기타 금속 가공제품 제조업",25,"금속 가공제품 제조업; 기계 및 가구 제외",69573.856379116,NA,0
"(주)디비씨",NA,20499,"규산소다","초자","GSN","소기업",3,10,"경상남도 김해시 한림면 안하로 278-11","경상남도 김해시 한림면 안하리 189-1",35.2342718891,128.5058622461,204,"기타 화학제품 제조업",20,"화학 물질 및 화학제품 제조업; 의약품 제외",29781.3213816738,NA,0
"(주)디앤시스템",NA,27216,"공장자동화기계",NA,"GSN","소기업",3,13,"경상남도 김해시 장유로55번길 45 (부곡동)","경상남도 김해시 부곡동 95-3",35.2246964071,128.5983269625,272,"측정, 시험, 항해, 제어 및 기타 정밀 기기 제조업; 광학 기기 제외",27,"의료, 정밀, 광학 기기 및 시계 제조업",21315.9356460858,NA,0
"(주)디에스바이오",NA,10802,"보조사료",NA,"GSN","소기업",3,2,"경상남도 김해시 한림면 김해대로1099번길 50-1","경상남도 김해시 한림면 퇴래리 991-6",35.3824021281,129.055191583,108,"동물용 사료 및 조제식품 제조업",10,"식료품 제조업",27476.7201163073,NA,0
"(주)디에스산업",NA,31114,"선박구성부분품","철판","GSN","소기업",3,15,"경상남도 김해시 한림면 장재로 260-23","경상남도 김해시 한림면 안하리 1260-7",35.3243968605,128.8266593897,311,"선박 및 보트 건조업",31,"기타 운송장비 제조업",12109.4095965166,NA,0
"(주)디에스엠",NA,29294,"금형제조업","철,알루미늄","GSN","소기업",3,33,"경상남도 김해시 김해대로2567번길 51 (어방동)","경상남도 김해시 어방동 1064-15",35.205624298,128.6637527703,292,"특수 목적용 기계 제조업",29,"기타 기계 및 장비 제조업",15373.7504030825,NA,0
"(주)디에스이브이","김해테크노밸리일반산업단지",30121,"삼륜 전기오토바이","철,플라스틱,합성수지 등","GSN","소기업",3,40,"경상남도 김해시 진례면 테크노밸리1로 128","경상남도 김해시 진례면 고모리 1577-5",35.3229261671,128.7636597126,301,"자동차용 엔진 및 자동차 제조업",30,"자동차 및 트레일러 제조업",13465.9838841025,NA,0
"(주)디에스이엔티",NA,30320,"자동차부품",NA,"GSN","소기업",3,7,"경상남도 김해시 진영읍 서부로346번길 52-40","경상남도 김해시 진영읍 의전리 318-2",35.3579302446,128.4875788564,303,"자동차 신품 부품 제조업",30,"자동차 및 트레일러 제조업",35113.249849554,NA,0
"(주)디에스정공",NA,25112,"초고압탱크",NA,"GSN","소기업",3,13,"경상남도 김해시 한림면 김해대로 1102-75","경상남도 김해시 한림면 명동리 1181-1",35.2707384981,128.8579837301,251,"구조용 금속제품, 탱크 및 증기발생기 제조업",25,"금속 가공제품 제조업; 기계 및 가구 제외",6579.28751656296,NA,0
"(주)디에스케스텍",NA,24312,"밸브류","철판","GSN","소기업",3,15,"경상남도 김해시 주촌면 서부로1499번길 49-47","경상남도 김해시 주촌면 내삼리 1231-5",35.3052636773,128.9497971227,243,"금속 주조업",24,"1차 금속 제조업",14631.4392799178,NA,0
"(주)디에스탑",NA,29223,"금속절삭기계",NA,"GSN","소기업",3,10,"경상남도 김해시 진영읍 하계리 20","경상남도 김해시 진영읍 하계리 20",35.3694993299,129.05489446,292,"특수 목적용 기계 제조업",29,"기타 기계 및 장비 제조업",26512.7056374886,NA,0
"(주)디에스피",NA,25112,"스테인레스판재","스테인레스판","GSN","소기업",3,12,"경상남도 김해시 생림면 장재로 439-24","경상남도 김해시 생림면 생림리 57-1",35.2433227213,128.508748209,251,"구조용 금속제품, 탱크 및 증기발생기 제조업",25,"금속 가공제품 제조업; 기계 및 가구 제외",29606.0053548172,NA,0
"(주)디에스피 제2공장",NA,25112,"가공스텐레스",NA,"GSN","소기업",3,10,"경상남도 김해시 생림면 장재로520번길 8-77","경상남도 김해시 생림면 봉림리 1214",35.2726044355,128.7683461532,251,"구조용 금속제품, 탱크 및 증기발생기 제조업",25,"금속 가공제품 제조업; 기계 및 가구 제외",8608.89467268417,NA,0
"(주)디에이취엠씨",NA,25121,"난방기","철재","GSN","소기업",3,10,"경상남도 김해시 진영읍 진산대로 135-44 (총 2 필지)","경상남도 김해시 진영읍 진영리 1001",35.4183637856,129.1570649284,251,"구조용 금속제품, 탱크 및 증기발생기 제조업",25,"금속 가공제품 제조업; 기계 및 가구 제외",37150.4749912537,NA,0
"(주)디에이치엠아이",NA,25924,"프레임",NA,"GSN","소기업",3,9,"경상남도 김해시 한림면 장방로 136-18","경상남도 김해시 한림면 가동리 648-5",35.2432277001,128.6236753932,259,"기타 금속 가공제품 제조업",25,"금속 가공제품 제조업; 기계 및 가구 제외",19231.1638541495,NA,0
"(주)디에이치피",NA,25913,"금속제품","철재","GSN","소기업",3,14,"경상남도 김해시 상동면 상동로375번길 80-4","경상남도 김해시 상동면 우계리 492",35.5809533562,128.1805732203,259,"기타 금속 가공제품 제조업",25,"금속 가공제품 제조업; 기계 및 가구 제외",71758.9093159922,NA,0
"(주)디에프아이",NA,21300,"판스프링,체외진당용의약품","스텐철판","GSN","중기업",2,51,"경상남도 김해시 진례면 고모로 388-25","경상남도 김해시 진례면 담안리 542-1",35.205624298,128.6637527703,213,"의료용품 및 기타 의약 관련제품 제조업",21,"의료용 물질 및 의약품 제조업",15373.7504030825,NA,0
"(주)디엔씨",NA,20411,"도료,페인트","도료,신나","GSN","중기업",2,67,"경상남도 김해시 진영읍 김해대로 118-51","경상남도 김해시 진영읍 좌곤리 92",35.0034016431,128.2332251993,204,"기타 화학제품 제조업",20,"화학 물질 및 화학제품 제조업; 의약품 제외",59451.8461258983,NA,0
"(주)디엔씨테크",NA,29199,"산업기계부품",NA,"GSN","소기업",3,11,"경상남도 김해시 장유로55번안길 19 (부곡동)","경상남도 김해시 부곡동 96-18",35.4305065904,129.1835646096,291,"일반 목적용 기계 제조업",29,"기타 기계 및 장비 제조업",39883.593430184,NA,0
"(주)디엔제이",NA,25923,"태프론가공품",NA,"GSN","소기업",3,5,"경상남도 김해시 상동면 소락로 169","경상남도 김해시 상동면 우계리 774",35.3864635102,129.058700917,259,"기타 금속 가공제품 제조업",25,"금속 가공제품 제조업; 기계 및 가구 제외",28016.175917495,NA,0
"(주)디엠에스",NA,25113,"금속조립구조제","금속","GSN","소기업",3,11,"경상남도 김해시 장유로 77-66 (부곡동)","경상남도 김해시 부곡동 258-16",35.2133300334,128.6030316894,251,"구조용 금속제품, 탱크 및 증기발생기 제조업",25,"금속 가공제품 제조업; 기계 및 가구 제외",20864.9811280253,NA,0
"(주)디엠에스코리아","김해GoldenRoot일반산업단지",25923,"냉장고 문 외(문짝 표면","스테인레스","GSN","소기업",3,13,"경상남도 김해시 주촌면 골든루트로 103-58, 제너럴서비스 내","경상남도 김해시 주촌면 농소리 625-8",35.3128200797,128.7541966351,259,"기타 금속 가공제품 제조업",25,"금속 가공제품 제조업; 기계 및 가구 제외",12934.7583020721,NA,0
"(주)디엠텍",NA,29150,"산업용오븐","버너,세라믹","GSN","소기업",3,7,"경상남도 김해시 진례면 고모로526번길 85","경상남도 김해시 진례면 고모리 774",34.9680638926,128.3897280705,291,"일반 목적용 기계 제조업",29,"기타 기계 및 장비 제조업",48788.916825427,NA,0
"(주)디와이테크김해공장",NA,26299,"전자부품",NA,"GSN","소기업",3,42,"경상남도 김해시 김해대로2635번길 22 (안동)","경상남도 김해시 안동 257-11",35.2164831896,128.8260946138,262,"전자 부품 제조업",26,"전자 부품, 컴퓨터, 영상, 음향 및 통신장비 제조업",568.26173688495,NA,0
"(주)디이엘",NA,23324,"디장인 콘크리트판넬/3D판넬",NA,"GSN","소기업",3,5,"경상남도 김해시 주촌면 서부로1638번길 165","경상남도 김해시 주촌면 천곡리 1095-4",35.2031725176,127.6365235542,233,"시멘트, 석회, 플라스터 및 그 제품 제조업",23,"비금속 광물제품 제조업",108878.355921525,NA,0
"(주)디케이문교",NA,23312,"치과용석고플라스터,치과기공소 덴쳐제작용 장비",NA,"GSN","소기업",3,22,"경상남도 김해시 한림면 안하로 248","경상남도 김해시 한림면 안하리 160-3",35.344809687,128.847288924,233,"시멘트, 석회, 플라스터 및 그 제품 제조업",23,"비금속 광물제품 제조업",14429.3489069472,NA,0
